[
   {
      "city":"Bratislava - Staré Mesto",
      "county":"Bratislava I",
      "region":"Bratislavskı",
      "latitude":48.140589,
      "longitude":17.112327
   },
   {
      "city":" Bratislava - Podunajské Biskupice",
      "county":"Bratislava II",
      "region":"Bratislavskı",
      "latitude":48.118048,
      "longitude":17.208115
   },
   {
      "city":" Bratislava - Ruinov",
      "county":"Bratislava II",
      "region":"Bratislavskı",
      "latitude":48.149314,
      "longitude":17.164505
   },
   {
      "city":" Bratislava - Vrakuòa",
      "county":"Bratislava II",
      "region":"Bratislavskı",
      "latitude":48.143251,
      "longitude":17.205724
   },
   {
      "city":" Bratislava - Nové Mesto",
      "county":"Bratislava III",
      "region":"Bratislavskı",
      "latitude":48.167162,
      "longitude":17.138352
   },
   {
      "city":" Bratislava - Raèa",
      "county":"Bratislava III",
      "region":"Bratislavskı",
      "latitude":48.211789,
      "longitude":17.153433
   },
   {
      "city":" Bratislava - Vajnory",
      "county":"Bratislava III",
      "region":"Bratislavskı",
      "latitude":48.20491,
      "longitude":17.206579
   },
   {
      "city":" Bratislava - Devín",
      "county":"Bratislava IV",
      "region":"Bratislavskı",
      "latitude":48.174586,
      "longitude":16.98261
   },
   {
      "city":" Bratislava - Devínska Nová Ves",
      "county":"Bratislava IV",
      "region":"Bratislavskı",
      "latitude":48.211227,
      "longitude":16.976335
   },
   {
      "city":" Bratislava - Dúbravka",
      "county":"Bratislava IV",
      "region":"Bratislavskı",
      "latitude":48.189887,
      "longitude":17.034932
   },
   {
      "city":" Bratislava - Karlova Ves",
      "county":"Bratislava IV",
      "region":"Bratislavskı",
      "latitude":48.160459,
      "longitude":17.04743
   },
   {
      "city":" Bratislava - Lamaè",
      "county":"Bratislava IV",
      "region":"Bratislavskı",
      "latitude":48.193198,
      "longitude":17.050882
   },
   {
      "city":" Bratislava - Záhorská Bystrica",
      "county":"Bratislava IV",
      "region":"Bratislavskı",
      "latitude":48.236902,
      "longitude":17.048701
   },
   {
      "city":" Bratislava - Èunovo",
      "county":"Bratislava V",
      "region":"Bratislavskı",
      "latitude":48.030736,
      "longitude":17.19949
   },
   {
      "city":" Bratislava - Jarovce",
      "county":"Bratislava V",
      "region":"Bratislavskı",
      "latitude":48.070627,
      "longitude":17.092431
   },
   {
      "city":" Bratislava - Petralka",
      "county":"Bratislava V",
      "region":"Bratislavskı",
      "latitude":48.110972,
      "longitude":17.11129
   },
   {
      "city":" Bratislava - Rusovce",
      "county":"Bratislava V",
      "region":"Bratislavskı",
      "latitude":48.056034,
      "longitude":17.145037
   },
   {
      "city":" Borinka",
      "county":"Malacky",
      "region":"Bratislavskı",
      "latitude":48.262941,
      "longitude":17.135951
   },
   {
      "city":" Gajary",
      "county":"Malacky",
      "region":"Bratislavskı",
      "latitude":48.461616,
      "longitude":16.916739
   },
   {
      "city":" Jablonové",
      "county":"Malacky",
      "region":"Bratislavskı",
      "latitude":48.34944,
      "longitude":17.092848
   },
   {
      "city":" Jakubov",
      "county":"Malacky",
      "region":"Bratislavskı",
      "latitude":48.415643,
      "longitude":16.918775
   },
   {
      "city":" Kostolište",
      "county":"Malacky",
      "region":"Bratislavskı",
      "latitude":48.445114,
      "longitude":16.978411
   },
   {
      "city":" Kuchyòa",
      "county":"Malacky",
      "region":"Bratislavskı",
      "latitude":48.405966,
      "longitude":17.182496
   },
   {
      "city":" Láb",
      "county":"Malacky",
      "region":"Bratislavskı",
      "latitude":48.36159,
      "longitude":16.9621
   },
   {
      "city":" Lozorno",
      "county":"Malacky",
      "region":"Bratislavskı",
      "latitude":48.321124,
      "longitude":17.070269
   },
   {
      "city":" Malacky",
      "county":"Malacky",
      "region":"Bratislavskı",
      "latitude":48.439005,
      "longitude":17.023253
   },
   {
      "city":" Malé Leváre",
      "county":"Malacky",
      "region":"Bratislavskı",
      "latitude":48.50297,
      "longitude":16.951771
   },
   {
      "city":" Marianka",
      "county":"Malacky",
      "region":"Bratislavskı",
      "latitude":48.24525,
      "longitude":17.064802
   },
   {
      "city":" Pernek",
      "county":"Malacky",
      "region":"Bratislavskı",
      "latitude":48.36227,
      "longitude":17.159516
   },
   {
      "city":" Plavecké Podhradie",
      "county":"Malacky",
      "region":"Bratislavskı",
      "latitude":48.478731,
      "longitude":17.279178
   },
   {
      "city":" Plaveckı Mikuláš",
      "county":"Malacky",
      "region":"Bratislavskı",
      "latitude":48.510722,
      "longitude":17.297664
   },
   {
      "city":" Plaveckı Štvrtok",
      "county":"Malacky",
      "region":"Bratislavskı",
      "latitude":48.39052,
      "longitude":16.981052
   },
   {
      "city":" Rohoník",
      "county":"Malacky",
      "region":"Bratislavskı",
      "latitude":48.439837,
      "longitude":17.188055
   },
   {
      "city":" Sološnica",
      "county":"Malacky",
      "region":"Bratislavskı",
      "latitude":48.459334,
      "longitude":17.239291
   },
   {
      "city":" Studienka",
      "county":"Malacky",
      "region":"Bratislavskı",
      "latitude":48.526587,
      "longitude":17.136139
   },
   {
      "city":" Stupava",
      "county":"Malacky",
      "region":"Bratislavskı",
      "latitude":48.278962,
      "longitude":16.995502
   },
   {
      "city":" Suchohrad",
      "county":"Malacky",
      "region":"Bratislavskı",
      "latitude":48.404204,
      "longitude":16.878331
   },
   {
      "city":" Ve¾ké Leváre",
      "county":"Malacky",
      "region":"Bratislavskı",
      "latitude":48.504057,
      "longitude":17.010522
   },
   {
      "city":" Vysoká pri Morave",
      "county":"Malacky",
      "region":"Bratislavskı",
      "latitude":48.323319,
      "longitude":16.92596
   },
   {
      "city":" Záhorie (vojenskı obvod)",
      "county":"Malacky",
      "region":"Bratislavskı",
      "latitude":48.500239,
      "longitude":17.119259
   },
   {
      "city":" Záhorská Ves",
      "county":"Malacky",
      "region":"Bratislavskı",
      "latitude":48.377733,
      "longitude":16.866597
   },
   {
      "city":" Závod",
      "county":"Malacky",
      "region":"Bratislavskı",
      "latitude":48.54618,
      "longitude":17.044795
   },
   {
      "city":" Zohor",
      "county":"Malacky",
      "region":"Bratislavskı",
      "latitude":48.314973,
      "longitude":16.975552
   },
   {
      "city":" Báhoò",
      "county":"Pezinok",
      "region":"Bratislavskı",
      "latitude":48.305885,
      "longitude":17.433674
   },
   {
      "city":" Budmerice",
      "county":"Pezinok",
      "region":"Bratislavskı",
      "latitude":48.360811,
      "longitude":17.409234
   },
   {
      "city":" Èastá",
      "county":"Pezinok",
      "region":"Bratislavskı",
      "latitude":48.405217,
      "longitude":17.324833
   },
   {
      "city":" Do¾any",
      "county":"Pezinok",
      "region":"Bratislavskı",
      "latitude":48.427156,
      "longitude":17.358648
   },
   {
      "city":" Dubová",
      "county":"Pezinok",
      "region":"Bratislavskı",
      "latitude":48.366325,
      "longitude":17.339385
   },
   {
      "city":" Jablonec",
      "county":"Pezinok",
      "region":"Bratislavskı",
      "latitude":48.339892,
      "longitude":17.452389
   },
   {
      "city":" Limbach",
      "county":"Pezinok",
      "region":"Bratislavskı",
      "latitude":48.29921,
      "longitude":17.188161
   },
   {
      "city":" Modra",
      "county":"Pezinok",
      "region":"Bratislavskı",
      "latitude":48.354257,
      "longitude":17.296528
   },
   {
      "city":" Pezinok",
      "county":"Pezinok",
      "region":"Bratislavskı",
      "latitude":48.318254,
      "longitude":17.226333
   },
   {
      "city":" Píla",
      "county":"Pezinok",
      "region":"Bratislavskı",
      "latitude":48.390885,
      "longitude":17.331828
   },
   {
      "city":" Slovenskı Grob",
      "county":"Pezinok",
      "region":"Bratislavskı",
      "latitude":48.250987,
      "longitude":17.283927
   },
   {
      "city":" Svätı Jur",
      "county":"Pezinok",
      "region":"Bratislavskı",
      "latitude":48.248019,
      "longitude":17.200115
   },
   {
      "city":" Šenkvice",
      "county":"Pezinok",
      "region":"Bratislavskı",
      "latitude":48.283843,
      "longitude":17.351507
   },
   {
      "city":" Štefanová",
      "county":"Pezinok",
      "region":"Bratislavskı",
      "latitude":48.386948,
      "longitude":17.405431
   },
   {
      "city":" Vinièné",
      "county":"Pezinok",
      "region":"Bratislavskı",
      "latitude":48.268485,
      "longitude":17.301904
   },
   {
      "city":" Vinosady",
      "county":"Pezinok",
      "region":"Bratislavskı",
      "latitude":48.316618,
      "longitude":17.289359
   },
   {
      "city":" Vištuk",
      "county":"Pezinok",
      "region":"Bratislavskı",
      "latitude":48.327507,
      "longitude":17.395377
   },
   {
      "city":" Bernolákovo",
      "county":"Senec",
      "region":"Bratislavskı",
      "latitude":48.196802,
      "longitude":17.313159
   },
   {
      "city":" Blatné",
      "county":"Senec",
      "region":"Bratislavskı",
      "latitude":48.270787,
      "longitude":17.412945
   },
   {
      "city":" Boldog",
      "county":"Senec",
      "region":"Bratislavskı",
      "latitude":48.235333,
      "longitude":17.425227
   },
   {
      "city":" Èataj",
      "county":"Senec",
      "region":"Bratislavskı",
      "latitude":48.266097,
      "longitude":17.477129
   },
   {
      "city":" Dunajská Luná",
      "county":"Senec",
      "region":"Bratislavskı",
      "latitude":48.078805,
      "longitude":17.260926
   },
   {
      "city":" Hamuliakovo",
      "county":"Senec",
      "region":"Bratislavskı",
      "latitude":48.031944,
      "longitude":17.251439
   },
   {
      "city":" Hrubá Borša",
      "county":"Senec",
      "region":"Bratislavskı",
      "latitude":48.177331,
      "longitude":17.481372
   },
   {
      "city":" Hrubı Šúr",
      "county":"Senec",
      "region":"Bratislavskı",
      "latitude":48.170359,
      "longitude":17.415064
   },
   {
      "city":" Hurbanova Ves",
      "county":"Senec",
      "region":"Bratislavskı",
      "latitude":48.15596,
      "longitude":17.445586
   },
   {
      "city":" Chorvátsky Grob",
      "county":"Senec",
      "region":"Bratislavskı",
      "latitude":48.221662,
      "longitude":17.249433
   },
   {
      "city":" Igram",
      "county":"Senec",
      "region":"Bratislavskı",
      "latitude":48.271616,
      "longitude":17.451171
   },
   {
      "city":" Ivanka pri Dunaji",
      "county":"Senec",
      "region":"Bratislavskı",
      "latitude":48.18923,
      "longitude":17.253902
   },
   {
      "city":" Kalinkovo",
      "county":"Senec",
      "region":"Bratislavskı",
      "latitude":48.057398,
      "longitude":17.2312
   },
   {
      "city":" Kaplna",
      "county":"Senec",
      "region":"Bratislavskı",
      "latitude":48.293495,
      "longitude":17.452451
   },
   {
      "city":" Kostolná pri Dunaji",
      "county":"Senec",
      "region":"Bratislavskı",
      "latitude":48.17202,
      "longitude":17.443925
   },
   {
      "city":" Krá¾ová pri Senci",
      "county":"Senec",
      "region":"Bratislavskı",
      "latitude":48.191556,
      "longitude":17.4784
   },
   {
      "city":" Malinovo",
      "county":"Senec",
      "region":"Bratislavskı",
      "latitude":48.16121,
      "longitude":17.301049
   },
   {
      "city":" Miloslavov",
      "county":"Senec",
      "region":"Bratislavskı",
      "latitude":48.103576,
      "longitude":17.299044
   },
   {
      "city":" Most pri Bratislave",
      "county":"Senec",
      "region":"Bratislavskı",
      "latitude":48.145545,
      "longitude":17.263886
   },
   {
      "city":" Nová Dedinka",
      "county":"Senec",
      "region":"Bratislavskı",
      "latitude":48.184588,
      "longitude":17.360204
   },
   {
      "city":" Novı Svet",
      "county":"Senec",
      "region":"Bratislavskı",
      "latitude":48.214213,
      "longitude":17.478854
   },
   {
      "city":" Reca",
      "county":"Senec",
      "region":"Bratislavskı",
      "latitude":48.227451,
      "longitude":17.462826
   },
   {
      "city":" Rovinka",
      "county":"Senec",
      "region":"Bratislavskı",
      "latitude":48.097582,
      "longitude":17.236111
   },
   {
      "city":" Senec",
      "county":"Senec",
      "region":"Bratislavskı",
      "latitude":48.234552,
      "longitude":17.385578
   },
   {
      "city":" Tomášov",
      "county":"Senec",
      "region":"Bratislavskı",
      "latitude":48.146688,
      "longitude":17.32877
   },
   {
      "city":" Tureò",
      "county":"Senec",
      "region":"Bratislavskı",
      "latitude":48.192183,
      "longitude":17.389244
   },
   {
      "city":" Ve¾kı Biel",
      "county":"Senec",
      "region":"Bratislavskı",
      "latitude":48.226329,
      "longitude":17.347381
   },
   {
      "city":" Vlky",
      "county":"Senec",
      "region":"Bratislavskı",
      "latitude":48.154512,
      "longitude":17.365452
   },
   {
      "city":" Zálesie",
      "county":"Senec",
      "region":"Bratislavskı",
      "latitude":48.163556,
      "longitude":17.272884
   },
   {
      "city":" Báè",
      "county":"Dunajská Streda",
      "region":"Trnavskı",
      "latitude":48.004528,
      "longitude":17.377711
   },
   {
      "city":" Baka",
      "county":"Dunajská Streda",
      "region":"Trnavskı",
      "latitude":47.904669,
      "longitude":17.526577
   },
   {
      "city":" Baloò",
      "county":"Dunajská Streda",
      "region":"Trnavskı",
      "latitude":47.83009,
      "longitude":17.670076
   },
   {
      "city":" Bellova Ves",
      "county":"Dunajská Streda",
      "region":"Trnavskı",
      "latitude":48.08632,
      "longitude":17.508937
   },
   {
      "city":" Blahová",
      "county":"Dunajská Streda",
      "region":"Trnavskı",
      "latitude":48.086055,
      "longitude":17.538421
   },
   {
      "city":" Blatná na Ostrove",
      "county":"Dunajská Streda",
      "region":"Trnavskı",
      "latitude":48.006049,
      "longitude":17.440189
   },
   {
      "city":" Bodíky",
      "county":"Dunajská Streda",
      "region":"Trnavskı",
      "latitude":47.925909,
      "longitude":17.457698
   },
   {
      "city":" Bohe¾ov",
      "county":"Dunajská Streda",
      "region":"Trnavskı",
      "latitude":47.918984,
      "longitude":17.6946
   },
   {
      "city":" Èakany",
      "county":"Dunajská Streda",
      "region":"Trnavskı",
      "latitude":48.116188,
      "longitude":17.363067
   },
   {
      "city":" Èenkovce",
      "county":"Dunajská Streda",
      "region":"Trnavskı",
      "latitude":48.106207,
      "longitude":17.433109
   },
   {
      "city":" Èiliská Radvaò",
      "county":"Dunajská Streda",
      "region":"Trnavskı",
      "latitude":47.835007,
      "longitude":17.69243
   },
   {
      "city":" Dobrohoš",
      "county":"Dunajská Streda",
      "region":"Trnavskı",
      "latitude":47.983335,
      "longitude":17.366663
   },
   {
      "city":" Dolnı Bar",
      "county":"Dunajská Streda",
      "region":"Trnavskı",
      "latitude":47.966516,
      "longitude":17.685862
   },
   {
      "city":" Dolnı Štál",
      "county":"Dunajská Streda",
      "region":"Trnavskı",
      "latitude":47.935487,
      "longitude":17.715283
   },
   {
      "city":" Dunajská Streda",
      "county":"Dunajská Streda",
      "region":"Trnavskı",
      "latitude":47.989309,
      "longitude":17.620142
   },
   {
      "city":" Dunajskı Klátov",
      "county":"Dunajská Streda",
      "region":"Trnavskı",
      "latitude":48.03269,
      "longitude":17.692381
   },
   {
      "city":" Gabèíkovo",
      "county":"Dunajská Streda",
      "region":"Trnavskı",
      "latitude":47.895106,
      "longitude":17.578125
   },
   {
      "city":" Holice",
      "county":"Dunajská Streda",
      "region":"Trnavskı",
      "latitude":47.995787,
      "longitude":17.484415
   },
   {
      "city":" Horná Potôò",
      "county":"Dunajská Streda",
      "region":"Trnavskı",
      "latitude":48.039875,
      "longitude":17.500166
   },
   {
      "city":" Horné Mıto",
      "county":"Dunajská Streda",
      "region":"Trnavskı",
      "latitude":48.01103,
      "longitude":17.75118
   },
   {
      "city":" Hornı Bar",
      "county":"Dunajská Streda",
      "region":"Trnavskı",
      "latitude":47.94782,
      "longitude":17.463737
   },
   {
      "city":" Hubice",
      "county":"Dunajská Streda",
      "region":"Trnavskı",
      "latitude":48.096101,
      "longitude":17.396557
   },
   {
      "city":" Hviezdoslavov",
      "county":"Dunajská Streda",
      "region":"Trnavskı",
      "latitude":48.066939,
      "longitude":17.348981
   },
   {
      "city":" Jahodná",
      "county":"Dunajská Streda",
      "region":"Trnavskı",
      "latitude":48.050525,
      "longitude":17.704959
   },
   {
      "city":" Janíky",
      "county":"Dunajská Streda",
      "region":"Trnavskı",
      "latitude":48.1428,
      "longitude":17.39481
   },
   {
      "city":" Jurová",
      "county":"Dunajská Streda",
      "region":"Trnavskı",
      "latitude":47.934914,
      "longitude":17.522054
   },
   {
      "city":" K¾úèovec",
      "county":"Dunajská Streda",
      "region":"Trnavskı",
      "latitude":47.794208,
      "longitude":17.717163
   },
   {
      "city":" Kostolné Kraèany",
      "county":"Dunajská Streda",
      "region":"Trnavskı",
      "latitude":47.984054,
      "longitude":17.574591
   },
   {
      "city":" Krá¾ovièove Kraèany",
      "county":"Dunajská Streda",
      "region":"Trnavskı",
      "latitude":47.986824,
      "longitude":17.551855
   },
   {
      "city":" Kútniky",
      "county":"Dunajská Streda",
      "region":"Trnavskı",
      "latitude":47.974963,
      "longitude":17.659693
   },
   {
      "city":" Kvetoslavov",
      "county":"Dunajská Streda",
      "region":"Trnavskı",
      "latitude":48.055207,
      "longitude":17.347042
   },
   {
      "city":" Kyselica",
      "county":"Dunajská Streda",
      "region":"Trnavskı",
      "latitude":47.986005,
      "longitude":17.389605
   },
   {
      "city":" Lehnice",
      "county":"Dunajská Streda",
      "region":"Trnavskı",
      "latitude":48.05113,
      "longitude":17.457899
   },
   {
      "city":" Lúè na Ostrove",
      "county":"Dunajská Streda",
      "region":"Trnavskı",
      "latitude":47.975136,
      "longitude":17.520284
   },
   {
      "city":" Macov",
      "county":"Dunajská Streda",
      "region":"Trnavskı",
      "latitude":48.020589,
      "longitude":17.431038
   },
   {
      "city":" Mad",
      "county":"Dunajská Streda",
      "region":"Trnavskı",
      "latitude":47.95202,
      "longitude":17.660637
   },
   {
      "city":" Malé Dvorníky",
      "county":"Dunajská Streda",
      "region":"Trnavskı",
      "latitude":48.02032,
      "longitude":17.651092
   },
   {
      "city":" Medveïov",
      "county":"Dunajská Streda",
      "region":"Trnavskı",
      "latitude":47.800011,
      "longitude":17.66076
   },
   {
      "city":" Mierovo",
      "county":"Dunajská Streda",
      "region":"Trnavskı",
      "latitude":48.069437,
      "longitude":17.385837
   },
   {
      "city":" Michal na Ostrove",
      "county":"Dunajská Streda",
      "region":"Trnavskı",
      "latitude":48.023937,
      "longitude":17.511398
   },
   {
      "city":" Òárad",
      "county":"Dunajská Streda",
      "region":"Trnavskı",
      "latitude":47.834741,
      "longitude":17.613015
   },
   {
      "city":" Novı ivot",
      "county":"Dunajská Streda",
      "region":"Trnavskı",
      "latitude":48.122243,
      "longitude":17.465063
   },
   {
      "city":" Ohrady",
      "county":"Dunajská Streda",
      "region":"Trnavskı",
      "latitude":47.989803,
      "longitude":17.699415
   },
   {
      "city":" Okoè",
      "county":"Dunajská Streda",
      "region":"Trnavskı",
      "latitude":47.886638,
      "longitude":17.809046
   },
   {
      "city":" O¾dza",
      "county":"Dunajská Streda",
      "region":"Trnavskı",
      "latitude":48.085687,
      "longitude":17.420312
   },
   {
      "city":" Orechová Potôò",
      "county":"Dunajská Streda",
      "region":"Trnavskı",
      "latitude":48.017386,
      "longitude":17.530205
   },
   {
      "city":" Padáò",
      "county":"Dunajská Streda",
      "region":"Trnavskı",
      "latitude":47.927871,
      "longitude":17.684077
   },
   {
      "city":" Pataš",
      "county":"Dunajská Streda",
      "region":"Trnavskı",
      "latitude":47.874517,
      "longitude":17.653228
   },
   {
      "city":" Potônske Lúky",
      "county":"Dunajská Streda",
      "region":"Trnavskı",
      "latitude":48.092997,
      "longitude":17.589632
   },
   {
      "city":" Povoda",
      "county":"Dunajská Streda",
      "region":"Trnavskı",
      "latitude":47.973124,
      "longitude":17.638638
   },
   {
      "city":" Rohovce",
      "county":"Dunajská Streda",
      "region":"Trnavskı",
      "latitude":47.996929,
      "longitude":17.409561
   },
   {
      "city":" Sap",
      "county":"Dunajská Streda",
      "region":"Trnavskı",
      "latitude":47.822156,
      "longitude":17.615772
   },
   {
      "city":" Šamorín",
      "county":"Dunajská Streda",
      "region":"Trnavskı",
      "latitude":48.027583,
      "longitude":17.311571
   },
   {
      "city":" Štvrtok na Ostrove",
      "county":"Dunajská Streda",
      "region":"Trnavskı",
      "latitude":48.098497,
      "longitude":17.354586
   },
   {
      "city":" Topo¾níky",
      "county":"Dunajská Streda",
      "region":"Trnavskı",
      "latitude":47.966124,
      "longitude":17.783214
   },
   {
      "city":" Trhová Hradská",
      "county":"Dunajská Streda",
      "region":"Trnavskı",
      "latitude":47.988258,
      "longitude":17.749532
   },
   {
      "city":" Trnávka",
      "county":"Dunajská Streda",
      "region":"Trnavskı",
      "latitude":48.013771,
      "longitude":17.405635
   },
   {
      "city":" Trstená na Ostrove",
      "county":"Dunajská Streda",
      "region":"Trnavskı",
      "latitude":47.917035,
      "longitude":17.501958
   },
   {
      "city":" Ve¾ká Paka",
      "county":"Dunajská Streda",
      "region":"Trnavskı",
      "latitude":48.039289,
      "longitude":17.407789
   },
   {
      "city":" Ve¾ké Blahovo",
      "county":"Dunajská Streda",
      "region":"Trnavskı",
      "latitude":48.01158,
      "longitude":17.578496
   },
   {
      "city":" Ve¾ké Dvorníky",
      "county":"Dunajská Streda",
      "region":"Trnavskı",
      "latitude":48.00001,
      "longitude":17.652758
   },
   {
      "city":" Ve¾kı Meder",
      "county":"Dunajská Streda",
      "region":"Trnavskı",
      "latitude":47.855781,
      "longitude":17.769367
   },
   {
      "city":" Vieska",
      "county":"Dunajská Streda",
      "region":"Trnavskı",
      "latitude":48.003491,
      "longitude":17.528454
   },
   {
      "city":" Vojka nad Dunajom",
      "county":"Dunajská Streda",
      "region":"Trnavskı",
      "latitude":47.974855,
      "longitude":17.384027
   },
   {
      "city":" Vrakúò",
      "county":"Dunajská Streda",
      "region":"Trnavskı",
      "latitude":47.937546,
      "longitude":17.60392
   },
   {
      "city":" Vydrany",
      "county":"Dunajská Streda",
      "region":"Trnavskı",
      "latitude":48.017034,
      "longitude":17.585635
   },
   {
      "city":" Zlaté Klasy",
      "county":"Dunajská Streda",
      "region":"Trnavskı",
      "latitude":48.130004,
      "longitude":17.431912
   },
   {
      "city":" Abrahám",
      "county":"Galanta",
      "region":"Trnavskı",
      "latitude":48.247983,
      "longitude":17.619419
   },
   {
      "city":" Èierna Voda",
      "county":"Galanta",
      "region":"Trnavskı",
      "latitude":48.128738,
      "longitude":17.654555
   },
   {
      "city":" Èierny Brod",
      "county":"Galanta",
      "region":"Trnavskı",
      "latitude":48.153438,
      "longitude":17.662851
   },
   {
      "city":" Dolná Streda",
      "county":"Galanta",
      "region":"Trnavskı",
      "latitude":48.256664,
      "longitude":17.743851
   },
   {
      "city":" Dolné Saliby",
      "county":"Galanta",
      "region":"Trnavskı",
      "latitude":48.094898,
      "longitude":17.797919
   },
   {
      "city":" Dolnı Chotár",
      "county":"Galanta",
      "region":"Trnavskı",
      "latitude":47.994689,
      "longitude":17.860851
   },
   {
      "city":" Galanta",
      "county":"Galanta",
      "region":"Trnavskı",
      "latitude":48.19105,
      "longitude":17.727063
   },
   {
      "city":" Gáò",
      "county":"Galanta",
      "region":"Trnavskı",
      "latitude":48.231927,
      "longitude":17.718623
   },
   {
      "city":" Horné Saliby",
      "county":"Galanta",
      "region":"Trnavskı",
      "latitude":48.111959,
      "longitude":17.741398
   },
   {
      "city":" Hoste",
      "county":"Galanta",
      "region":"Trnavskı",
      "latitude":48.26042,
      "longitude":17.640144
   },
   {
      "city":" Jánovce",
      "county":"Galanta",
      "region":"Trnavskı",
      "latitude":48.183435,
      "longitude":17.529912
   },
   {
      "city":" Jelka",
      "county":"Galanta",
      "region":"Trnavskı",
      "latitude":48.145206,
      "longitude":17.506877
   },
   {
      "city":" Kajal",
      "county":"Galanta",
      "region":"Trnavskı",
      "latitude":48.185538,
      "longitude":17.786339
   },
   {
      "city":" Košúty",
      "county":"Galanta",
      "region":"Trnavskı",
      "latitude":48.171568,
      "longitude":17.658203
   },
   {
      "city":" Krá¾ov Brod",
      "county":"Galanta",
      "region":"Trnavskı",
      "latitude":48.048281,
      "longitude":17.851338
   },
   {
      "city":" Malá Maèa",
      "county":"Galanta",
      "region":"Trnavskı",
      "latitude":48.229573,
      "longitude":17.64552
   },
   {
      "city":" Matúškovo",
      "county":"Galanta",
      "region":"Trnavskı",
      "latitude":48.166667,
      "longitude":17.733333
   },
   {
      "city":" Mostová",
      "county":"Galanta",
      "region":"Trnavskı",
      "latitude":48.140162,
      "longitude":17.678594
   },
   {
      "city":" Pata",
      "county":"Galanta",
      "region":"Trnavskı",
      "latitude":48.278118,
      "longitude":17.83405
   },
   {
      "city":" Pusté Sady",
      "county":"Galanta",
      "region":"Trnavskı",
      "latitude":48.311367,
      "longitude":17.820153
   },
   {
      "city":" Pusté Ú¾any",
      "county":"Galanta",
      "region":"Trnavskı",
      "latitude":48.22185,
      "longitude":17.57016
   },
   {
      "city":" Sereï",
      "county":"Galanta",
      "region":"Trnavskı",
      "latitude":48.28845,
      "longitude":17.722149
   },
   {
      "city":" Sládkovièovo",
      "county":"Galanta",
      "region":"Trnavskı",
      "latitude":48.203615,
      "longitude":17.628401
   },
   {
      "city":" Šalgoèka",
      "county":"Galanta",
      "region":"Trnavskı",
      "latitude":48.334265,
      "longitude":17.814708
   },
   {
      "city":" Šintava",
      "county":"Galanta",
      "region":"Trnavskı",
      "latitude":48.282884,
      "longitude":17.765061
   },
   {
      "city":" Šoporòa",
      "county":"Galanta",
      "region":"Trnavskı",
      "latitude":48.254196,
      "longitude":17.81792
   },
   {
      "city":" Tomášikovo",
      "county":"Galanta",
      "region":"Trnavskı",
      "latitude":48.081183,
      "longitude":17.694143
   },
   {
      "city":" Topo¾nica",
      "county":"Galanta",
      "region":"Trnavskı",
      "latitude":48.166469,
      "longitude":17.795153
   },
   {
      "city":" Trstice",
      "county":"Galanta",
      "region":"Trnavskı",
      "latitude":48.015847,
      "longitude":17.80456
   },
   {
      "city":" Váhovce",
      "county":"Galanta",
      "region":"Trnavskı",
      "latitude":48.25,
      "longitude":17.783333
   },
   {
      "city":" Ve¾ká Maèa",
      "county":"Galanta",
      "region":"Trnavskı",
      "latitude":48.242094,
      "longitude":17.69249
   },
   {
      "city":" Ve¾ké Ú¾any",
      "county":"Galanta",
      "region":"Trnavskı",
      "latitude":48.149827,
      "longitude":17.581375
   },
   {
      "city":" Ve¾kı Grob",
      "county":"Galanta",
      "region":"Trnavskı",
      "latitude":48.249147,
      "longitude":17.515959
   },
   {
      "city":" Vinohrady nad Váhom",
      "county":"Galanta",
      "region":"Trnavskı",
      "latitude":48.3167,
      "longitude":17.772916
   },
   {
      "city":" Vozokany",
      "county":"Galanta",
      "region":"Trnavskı",
      "latitude":48.095666,
      "longitude":17.706797
   },
   {
      "city":" Zemianske Sady",
      "county":"Galanta",
      "region":"Trnavskı",
      "latitude":48.330342,
      "longitude":17.83098
   },
   {
      "city":" Bojnièky",
      "county":"Hlohovec",
      "region":"Trnavskı",
      "latitude":48.39214,
      "longitude":17.796841
   },
   {
      "city":" Èerveník",
      "county":"Hlohovec",
      "region":"Trnavskı",
      "latitude":48.459918,
      "longitude":17.756302
   },
   {
      "city":" Dolné Otrokovce",
      "county":"Hlohovec",
      "region":"Trnavskı",
      "latitude":48.466368,
      "longitude":17.911872
   },
   {
      "city":" Dolné Trhovište",
      "county":"Hlohovec",
      "region":"Trnavskı",
      "latitude":48.442833,
      "longitude":17.908546
   },
   {
      "city":" Dolné Zelenice",
      "county":"Hlohovec",
      "region":"Trnavskı",
      "latitude":48.380959,
      "longitude":17.749446
   },
   {
      "city":" Dvorníky",
      "county":"Hlohovec",
      "region":"Trnavskı",
      "latitude":48.354814,
      "longitude":17.79374
   },
   {
      "city":" Hlohovec",
      "county":"Hlohovec",
      "region":"Trnavskı",
      "latitude":48.427884,
      "longitude":17.798782
   },
   {
      "city":" Horné Otrokovce",
      "county":"Hlohovec",
      "region":"Trnavskı",
      "latitude":48.488516,
      "longitude":17.883994
   },
   {
      "city":" Horné Trhovište",
      "county":"Hlohovec",
      "region":"Trnavskı",
      "latitude":48.46995,
      "longitude":17.871529
   },
   {
      "city":" Horné Zelenice",
      "county":"Hlohovec",
      "region":"Trnavskı",
      "latitude":48.392521,
      "longitude":17.746637
   },
   {
      "city":" Jalšové",
      "county":"Hlohovec",
      "region":"Trnavskı",
      "latitude":48.507362,
      "longitude":17.828914
   },
   {
      "city":" K¾aèany",
      "county":"Hlohovec",
      "region":"Trnavskı",
      "latitude":48.389459,
      "longitude":17.872791
   },
   {
      "city":" Koplotovce",
      "county":"Hlohovec",
      "region":"Trnavskı",
      "latitude":48.476163,
      "longitude":17.80765
   },
   {
      "city":" Leopoldov",
      "county":"Hlohovec",
      "region":"Trnavskı",
      "latitude":48.445313,
      "longitude":17.773265
   },
   {
      "city":" Madunice",
      "county":"Hlohovec",
      "region":"Trnavskı",
      "latitude":48.482881,
      "longitude":17.783003
   },
   {
      "city":" Merašice",
      "county":"Hlohovec",
      "region":"Trnavskı",
      "latitude":48.463014,
      "longitude":17.945565
   },
   {
      "city":" Pastuchov",
      "county":"Hlohovec",
      "region":"Trnavskı",
      "latitude":48.425585,
      "longitude":17.876945
   },
   {
      "city":" Ratkovce",
      "county":"Hlohovec",
      "region":"Trnavskı",
      "latitude":48.467726,
      "longitude":17.719664
   },
   {
      "city":" Sasinkovo",
      "county":"Hlohovec",
      "region":"Trnavskı",
      "latitude":48.37067,
      "longitude":17.851942
   },
   {
      "city":" Siladice",
      "county":"Hlohovec",
      "region":"Trnavskı",
      "latitude":48.357972,
      "longitude":17.74352
   },
   {
      "city":" Tekolïany",
      "county":"Hlohovec",
      "region":"Trnavskı",
      "latitude":48.492383,
      "longitude":17.904755
   },
   {
      "city":" Teplièky",
      "county":"Hlohovec",
      "region":"Trnavskı",
      "latitude":48.465653,
      "longitude":17.852746
   },
   {
      "city":" Trakovice",
      "county":"Hlohovec",
      "region":"Trnavskı",
      "latitude":48.438977,
      "longitude":17.711034
   },
   {
      "city":" lkovce",
      "county":"Hlohovec",
      "region":"Trnavskı",
      "latitude":48.459445,
      "longitude":17.717942
   },
   {
      "city":" Banka",
      "county":"Piešany",
      "region":"Trnavskı",
      "latitude":48.578177,
      "longitude":17.861256
   },
   {
      "city":" Bašovce",
      "county":"Piešany",
      "region":"Trnavskı",
      "latitude":48.6331,
      "longitude":17.797293
   },
   {
      "city":" Borovce",
      "county":"Piešany",
      "region":"Trnavskı",
      "latitude":48.574182,
      "longitude":17.745565
   },
   {
      "city":" Dolnı Lopašov",
      "county":"Piešany",
      "region":"Trnavskı",
      "latitude":48.589121,
      "longitude":17.633155
   },
   {
      "city":" Drahovce",
      "county":"Piešany",
      "region":"Trnavskı",
      "latitude":48.518346,
      "longitude":17.798505
   },
   {
      "city":" Dubovany",
      "county":"Piešany",
      "region":"Trnavskı",
      "latitude":48.530683,
      "longitude":17.734454
   },
   {
      "city":" Ducové",
      "county":"Piešany",
      "region":"Trnavskı",
      "latitude":48.630428,
      "longitude":17.865661
   },
   {
      "city":" Hubina",
      "county":"Piešany",
      "region":"Trnavskı",
      "latitude":48.606946,
      "longitude":17.937752
   },
   {
      "city":" Chtelnica",
      "county":"Piešany",
      "region":"Trnavskı",
      "latitude":48.569108,
      "longitude":17.623391
   },
   {
      "city":" Koèín - Lanèár",
      "county":"Piešany",
      "region":"Trnavskı",
      "latitude":48.598183,
      "longitude":17.6551
   },
   {
      "city":" Krakovany",
      "county":"Piešany",
      "region":"Trnavskı",
      "latitude":48.621042,
      "longitude":17.748593
   },
   {
      "city":" Moravany nad Váhom",
      "county":"Piešany",
      "region":"Trnavskı",
      "latitude":48.600686,
      "longitude":17.878046
   },
   {
      "city":" Niná",
      "county":"Piešany",
      "region":"Trnavskı",
      "latitude":48.527949,
      "longitude":17.653441
   },
   {
      "city":" Ostrov",
      "county":"Piešany",
      "region":"Trnavskı",
      "latitude":48.631796,
      "longitude":17.764225
   },
   {
      "city":" Peèeòady",
      "county":"Piešany",
      "region":"Trnavskı",
      "latitude":48.483134,
      "longitude":17.719268
   },
   {
      "city":" Piešany",
      "county":"Piešany",
      "region":"Trnavskı",
      "latitude":48.589525,
      "longitude":17.821385
   },
   {
      "city":" Prašník",
      "county":"Piešany",
      "region":"Trnavskı",
      "latitude":48.651299,
      "longitude":17.687128
   },
   {
      "city":" Rakovice",
      "county":"Piešany",
      "region":"Trnavskı",
      "latitude":48.570479,
      "longitude":17.706364
   },
   {
      "city":" Ratnovce",
      "county":"Piešany",
      "region":"Trnavskı",
      "latitude":48.557482,
      "longitude":17.837388
   },
   {
      "city":" Sokolovce",
      "county":"Piešany",
      "region":"Trnavskı",
      "latitude":48.536636,
      "longitude":17.842892
   },
   {
      "city":" Šípkové",
      "county":"Piešany",
      "region":"Trnavskı",
      "latitude":48.656896,
      "longitude":17.718569
   },
   {
      "city":" Šterusy",
      "county":"Piešany",
      "region":"Trnavskı",
      "latitude":48.60105,
      "longitude":17.679755
   },
   {
      "city":" Trebatice",
      "county":"Piešany",
      "region":"Trnavskı",
      "latitude":48.596347,
      "longitude":17.749701
   },
   {
      "city":" Ve¾ké Kosto¾any",
      "county":"Piešany",
      "region":"Trnavskı",
      "latitude":48.513722,
      "longitude":17.70294
   },
   {
      "city":" Ve¾ké Orvište",
      "county":"Piešany",
      "region":"Trnavskı",
      "latitude":48.62013,
      "longitude":17.789985
   },
   {
      "city":" Veselé",
      "county":"Piešany",
      "region":"Trnavskı",
      "latitude":48.557273,
      "longitude":17.70784
   },
   {
      "city":" Vrbové",
      "county":"Piešany",
      "region":"Trnavskı",
      "latitude":48.618883,
      "longitude":17.710926
   },
   {
      "city":" Bílkove Humence",
      "county":"Senica",
      "region":"Trnavskı",
      "latitude":48.589845,
      "longitude":17.242819
   },
   {
      "city":" Borskı Mikuláš",
      "county":"Senica",
      "region":"Trnavskı",
      "latitude":48.624827,
      "longitude":17.241645
   },
   {
      "city":" Borskı Svätı Jur",
      "county":"Senica",
      "region":"Trnavskı",
      "latitude":48.598198,
      "longitude":17.074889
   },
   {
      "city":" Cerová",
      "county":"Senica",
      "region":"Trnavskı",
      "latitude":48.582923,
      "longitude":17.378868
   },
   {
      "city":" Èáry",
      "county":"Senica",
      "region":"Trnavskı",
      "latitude":48.666693,
      "longitude":17.081303
   },
   {
      "city":" Èastkov",
      "county":"Senica",
      "region":"Trnavskı",
      "latitude":48.746525,
      "longitude":17.354071
   },
   {
      "city":" Dojè",
      "county":"Senica",
      "region":"Trnavskı",
      "latitude":48.684044,
      "longitude":17.261289
   },
   {
      "city":" Hlboké",
      "county":"Senica",
      "region":"Trnavskı",
      "latitude":48.63813,
      "longitude":17.409263
   },
   {
      "city":" Hradište pod Vrátnom",
      "county":"Senica",
      "region":"Trnavskı",
      "latitude":48.62505,
      "longitude":17.494853
   },
   {
      "city":" Jablonica",
      "county":"Senica",
      "region":"Trnavskı",
      "latitude":48.598031,
      "longitude":17.43776
   },
   {
      "city":" Koválov",
      "county":"Senica",
      "region":"Trnavskı",
      "latitude":48.704348,
      "longitude":17.281315
   },
   {
      "city":" Kuklov",
      "county":"Senica",
      "region":"Trnavskı",
      "latitude":48.625986,
      "longitude":17.086712
   },
   {
      "city":" Kúty",
      "county":"Senica",
      "region":"Trnavskı",
      "latitude":48.659495,
      "longitude":17.011081
   },
   {
      "city":" Lakšárska Nová Ves",
      "county":"Senica",
      "region":"Trnavskı",
      "latitude":48.577324,
      "longitude":17.180125
   },
   {
      "city":" Moravskı Svätı Ján",
      "county":"Senica",
      "region":"Trnavskı",
      "latitude":48.569429,
      "longitude":16.987751
   },
   {
      "city":" Osuské",
      "county":"Senica",
      "region":"Trnavskı",
      "latitude":48.62421,
      "longitude":17.440461
   },
   {
      "city":" Plaveckı Peter",
      "county":"Senica",
      "region":"Trnavskı",
      "latitude":48.532215,
      "longitude":17.332191
   },
   {
      "city":" Podbranè",
      "county":"Senica",
      "region":"Trnavskı",
      "latitude":48.728413,
      "longitude":17.457348
   },
   {
      "city":" Prietr",
      "county":"Senica",
      "region":"Trnavskı",
      "latitude":48.673504,
      "longitude":17.440228
   },
   {
      "city":" Prievaly",
      "county":"Senica",
      "region":"Trnavskı",
      "latitude":48.560026,
      "longitude":17.347087
   },
   {
      "city":" Rohov",
      "county":"Senica",
      "region":"Trnavskı",
      "latitude":48.731191,
      "longitude":17.339038
   },
   {
      "city":" Rovensko",
      "county":"Senica",
      "region":"Trnavskı",
      "latitude":48.718406,
      "longitude":17.37169
   },
   {
      "city":" Rybky",
      "county":"Senica",
      "region":"Trnavskı",
      "latitude":48.707955,
      "longitude":17.339003
   },
   {
      "city":" Sekule",
      "county":"Senica",
      "region":"Trnavskı",
      "latitude":48.60795,
      "longitude":16.986918
   },
   {
      "city":" Senica",
      "county":"Senica",
      "region":"Trnavskı",
      "latitude":48.678756,
      "longitude":17.366153
   },
   {
      "city":" Smolinské",
      "county":"Senica",
      "region":"Trnavskı",
      "latitude":48.675526,
      "longitude":17.129632
   },
   {
      "city":" Smrdáky",
      "county":"Senica",
      "region":"Trnavskı",
      "latitude":48.723568,
      "longitude":17.306861
   },
   {
      "city":" Sobotište",
      "county":"Senica",
      "region":"Trnavskı",
      "latitude":48.745494,
      "longitude":17.404331
   },
   {
      "city":" Šajdíkove Humence",
      "county":"Senica",
      "region":"Trnavskı",
      "latitude":48.649186,
      "longitude":17.292707
   },
   {
      "city":" Šaštín - Stráe",
      "county":"Senica",
      "region":"Trnavskı",
      "latitude":48.639373,
      "longitude":17.142879
   },
   {
      "city":" Štefanov",
      "county":"Senica",
      "region":"Trnavskı",
      "latitude":48.678529,
      "longitude":17.199553
   },
   {
      "city":" Brodské",
      "county":"Skalica",
      "region":"Trnavskı",
      "latitude":48.695064,
      "longitude":17.03125
   },
   {
      "city":" Dubovce",
      "county":"Skalica",
      "region":"Trnavskı",
      "latitude":48.763143,
      "longitude":17.2416
   },
   {
      "city":" Gbely",
      "county":"Skalica",
      "region":"Trnavskı",
      "latitude":48.727209,
      "longitude":17.082648
   },
   {
      "city":" Holíè",
      "county":"Skalica",
      "region":"Trnavskı",
      "latitude":48.80071,
      "longitude":17.14612
   },
   {
      "city":" Chropov",
      "county":"Skalica",
      "region":"Trnavskı",
      "latitude":48.773183,
      "longitude":17.317836
   },
   {
      "city":" Kátov",
      "county":"Skalica",
      "region":"Trnavskı",
      "latitude":48.832458,
      "longitude":17.170893
   },
   {
      "city":" Kopèany",
      "county":"Skalica",
      "region":"Trnavskı",
      "latitude":48.780369,
      "longitude":17.10632
   },
   {
      "city":" Koválovec",
      "county":"Skalica",
      "region":"Trnavskı",
      "latitude":48.783333,
      "longitude":17.3
   },
   {
      "city":" Letnièie",
      "county":"Skalica",
      "region":"Trnavskı",
      "latitude":48.704829,
      "longitude":17.186203
   },
   {
      "city":" Lopašov",
      "county":"Skalica",
      "region":"Trnavskı",
      "latitude":48.750821,
      "longitude":17.329262
   },
   {
      "city":" Mokrı Háj",
      "county":"Skalica",
      "region":"Trnavskı",
      "latitude":48.807195,
      "longitude":17.25275
   },
   {
      "city":" Oreské",
      "county":"Skalica",
      "region":"Trnavskı",
      "latitude":48.745122,
      "longitude":17.302892
   },
   {
      "city":" Petrova Ves",
      "county":"Skalica",
      "region":"Trnavskı",
      "latitude":48.720837,
      "longitude":17.161904
   },
   {
      "city":" Popudinské Moèid¾any",
      "county":"Skalica",
      "region":"Trnavskı",
      "latitude":48.782239,
      "longitude":17.21329
   },
   {
      "city":" Prietrka",
      "county":"Skalica",
      "region":"Trnavskı",
      "latitude":48.805348,
      "longitude":17.209857
   },
   {
      "city":" Radimov",
      "county":"Skalica",
      "region":"Trnavskı",
      "latitude":48.75,
      "longitude":17.2
   },
   {
      "city":" Radošovce",
      "county":"Skalica",
      "region":"Trnavskı",
      "latitude":48.770936,
      "longitude":17.28575
   },
   {
      "city":" Skalica",
      "county":"Skalica",
      "region":"Trnavskı",
      "latitude":48.845208,
      "longitude":17.227913
   },
   {
      "city":" Trnovec",
      "county":"Skalica",
      "region":"Trnavskı",
      "latitude":48.799406,
      "longitude":17.188511
   },
   {
      "city":" Unín",
      "county":"Skalica",
      "region":"Trnavskı",
      "latitude":48.725519,
      "longitude":17.215693
   },
   {
      "city":" Vrádište",
      "county":"Skalica",
      "region":"Trnavskı",
      "latitude":48.824013,
      "longitude":17.192155
   },
   {
      "city":" Biely Kostol",
      "county":"Trnava",
      "region":"Trnavskı",
      "latitude":48.365173,
      "longitude":17.527488
   },
   {
      "city":" Bíòovce",
      "county":"Trnava",
      "region":"Trnavskı",
      "latitude":48.504299,
      "longitude":17.481944
   },
   {
      "city":" Bohdanovce nad Trnavou",
      "county":"Trnava",
      "region":"Trnavskı",
      "latitude":48.433516,
      "longitude":17.553784
   },
   {
      "city":" Boleráz",
      "county":"Trnava",
      "region":"Trnavskı",
      "latitude":48.470207,
      "longitude":17.498476
   },
   {
      "city":" Borová",
      "county":"Trnava",
      "region":"Trnavskı",
      "latitude":48.387792,
      "longitude":17.44074
   },
   {
      "city":" Brestovany",
      "county":"Trnava",
      "region":"Trnavskı",
      "latitude":48.385557,
      "longitude":17.690227
   },
   {
      "city":" Buèany",
      "county":"Trnava",
      "region":"Trnavskı",
      "latitude":48.418642,
      "longitude":17.698193
   },
   {
      "city":" Buková",
      "county":"Trnava",
      "region":"Trnavskı",
      "latitude":48.537283,
      "longitude":17.399158
   },
   {
      "city":" Cífer",
      "county":"Trnava",
      "region":"Trnavskı",
      "latitude":48.315284,
      "longitude":17.490022
   },
   {
      "city":" Dechtice",
      "county":"Trnava",
      "region":"Trnavskı",
      "latitude":48.548052,
      "longitude":17.595636
   },
   {
      "city":" Dlhá",
      "county":"Trnava",
      "region":"Trnavskı",
      "latitude":48.412363,
      "longitude":17.427031
   },
   {
      "city":" Dobrá Voda",
      "county":"Trnava",
      "region":"Trnavskı",
      "latitude":48.604653,
      "longitude":17.539288
   },
   {
      "city":" Dolná Krupá",
      "county":"Trnava",
      "region":"Trnavskı",
      "latitude":48.469908,
      "longitude":17.565541
   },
   {
      "city":" Dolné Dubové",
      "county":"Trnava",
      "region":"Trnavskı",
      "latitude":48.494149,
      "longitude":17.596581
   },
   {
      "city":" Dolné Lovèice",
      "county":"Trnava",
      "region":"Trnavskı",
      "latitude":48.370955,
      "longitude":17.660533
   },
   {
      "city":" Dolné Orešany",
      "county":"Trnava",
      "region":"Trnavskı",
      "latitude":48.44471,
      "longitude":17.398579
   },
   {
      "city":" Horná Krupá",
      "county":"Trnava",
      "region":"Trnavskı",
      "latitude":48.523912,
      "longitude":17.517273
   },
   {
      "city":" Horné Dubové",
      "county":"Trnava",
      "region":"Trnavskı",
      "latitude":48.518703,
      "longitude":17.560678
   },
   {
      "city":" Horné Orešany",
      "county":"Trnava",
      "region":"Trnavskı",
      "latitude":48.464136,
      "longitude":17.421317
   },
   {
      "city":" Hrnèiarovce nad Parnou",
      "county":"Trnava",
      "region":"Trnavskı",
      "latitude":48.337198,
      "longitude":17.558884
   },
   {
      "city":" Jaslovské Bohunice",
      "county":"Trnava",
      "region":"Trnavskı",
      "latitude":48.475587,
      "longitude":17.643112
   },
   {
      "city":" Kátlovce",
      "county":"Trnava",
      "region":"Trnavskı",
      "latitude":48.520777,
      "longitude":17.60688
   },
   {
      "city":" Košolná",
      "county":"Trnava",
      "region":"Trnavskı",
      "latitude":48.425335,
      "longitude":17.464188
   },
   {
      "city":" Kriovany nad Dudváhom",
      "county":"Trnava",
      "region":"Trnavskı",
      "latitude":48.326382,
      "longitude":17.657407
   },
   {
      "city":" Lošonec",
      "county":"Trnava",
      "region":"Trnavskı",
      "latitude":48.483333,
      "longitude":17.4
   },
   {
      "city":" Majcichov",
      "county":"Trnava",
      "region":"Trnavskı",
      "latitude":48.284707,
      "longitude":17.627952
   },
   {
      "city":" Malenice",
      "county":"Trnava",
      "region":"Trnavskı",
      "latitude":48.451475,
      "longitude":17.677334
   },
   {
      "city":" Naháè",
      "county":"Trnava",
      "region":"Trnavskı",
      "latitude":48.554006,
      "longitude":17.514853
   },
   {
      "city":" Opoj",
      "county":"Trnava",
      "region":"Trnavskı",
      "latitude":48.306316,
      "longitude":17.63829
   },
   {
      "city":" Pavlice",
      "county":"Trnava",
      "region":"Trnavskı",
      "latitude":48.258067,
      "longitude":17.579197
   },
   {
      "city":" Radošovce",
      "county":"Trnava",
      "region":"Trnavskı",
      "latitude":48.501268,
      "longitude":17.649105
   },
   {
      "city":" Ruindol",
      "county":"Trnava",
      "region":"Trnavskı",
      "latitude":48.370169,
      "longitude":17.494175
   },
   {
      "city":" Slovenská Nová Ves",
      "county":"Trnava",
      "region":"Trnavskı",
      "latitude":48.290872,
      "longitude":17.533344
   },
   {
      "city":" Smolenice",
      "county":"Trnava",
      "region":"Trnavskı",
      "latitude":48.50617,
      "longitude":17.415325
   },
   {
      "city":" Suchá nad Parnou",
      "county":"Trnava",
      "region":"Trnavskı",
      "latitude":48.417903,
      "longitude":17.492643
   },
   {
      "city":" Šelpice",
      "county":"Trnava",
      "region":"Trnavskı",
      "latitude":48.432991,
      "longitude":17.530473
   },
   {
      "city":" Špaèince",
      "county":"Trnava",
      "region":"Trnavskı",
      "latitude":48.444712,
      "longitude":17.599886
   },
   {
      "city":" Šúrovce",
      "county":"Trnava",
      "region":"Trnavskı",
      "latitude":48.333065,
      "longitude":17.713066
   },
   {
      "city":" Trnava",
      "county":"Trnava",
      "region":"Trnavskı",
      "latitude":48.376765,
      "longitude":17.585818
   },
   {
      "city":" Trstín",
      "county":"Trnava",
      "region":"Trnavskı",
      "latitude":48.541157,
      "longitude":17.469711
   },
   {
      "city":" Vlèkovce",
      "county":"Trnava",
      "region":"Trnavskı",
      "latitude":48.313145,
      "longitude":17.649537
   },
   {
      "city":" Voderady",
      "county":"Trnava",
      "region":"Trnavskı",
      "latitude":48.276678,
      "longitude":17.558552
   },
   {
      "city":" Zavar",
      "county":"Trnava",
      "region":"Trnavskı",
      "latitude":48.351429,
      "longitude":17.672645
   },
   {
      "city":" Zeleneè",
      "county":"Trnava",
      "region":"Trnavskı",
      "latitude":48.317817,
      "longitude":17.590404
   },
   {
      "city":" Zvonèín",
      "county":"Trnava",
      "region":"Trnavskı",
      "latitude":48.39994,
      "longitude":17.505598
   },
   {
      "city":" Bánovce nad Bebravou",
      "county":"Bánovce nad Bebravou",
      "region":"Trenèiansky",
      "latitude":48.721667,
      "longitude":18.259826
   },
   {
      "city":" Borèany",
      "county":"Bánovce nad Bebravou",
      "region":"Trenèiansky",
      "latitude":48.656379,
      "longitude":18.219376
   },
   {
      "city":" Brezolupy",
      "county":"Bánovce nad Bebravou",
      "region":"Trenèiansky",
      "latitude":48.701507,
      "longitude":18.298877
   },
   {
      "city":" Cimenná",
      "county":"Bánovce nad Bebravou",
      "region":"Trenèiansky",
      "latitude":48.726663,
      "longitude":18.140566
   },
   {
      "city":" Èierna Lehota",
      "county":"Bánovce nad Bebravou",
      "region":"Trenèiansky",
      "latitude":48.867554,
      "longitude":18.333842
   },
   {
      "city":" Deerice",
      "county":"Bánovce nad Bebravou",
      "region":"Trenèiansky",
      "latitude":48.761706,
      "longitude":18.213331
   },
   {
      "city":" Dolné Naštice",
      "county":"Bánovce nad Bebravou",
      "region":"Trenèiansky",
      "latitude":48.690575,
      "longitude":18.259934
   },
   {
      "city":" Dubnièka",
      "county":"Bánovce nad Bebravou",
      "region":"Trenèiansky",
      "latitude":48.768097,
      "longitude":18.304074
   },
   {
      "city":" Dvorec",
      "county":"Bánovce nad Bebravou",
      "region":"Trenèiansky",
      "latitude":48.717742,
      "longitude":18.212321
   },
   {
      "city":" Haláèovce",
      "county":"Bánovce nad Bebravou",
      "region":"Trenèiansky",
      "latitude":48.701972,
      "longitude":18.194983
   },
   {
      "city":" Horné Naštice",
      "county":"Bánovce nad Bebravou",
      "region":"Trenèiansky",
      "latitude":48.743027,
      "longitude":18.295601
   },
   {
      "city":" Chudá Lehota",
      "county":"Bánovce nad Bebravou",
      "region":"Trenèiansky",
      "latitude":48.646756,
      "longitude":18.198307
   },
   {
      "city":" Krásna Ves",
      "county":"Bánovce nad Bebravou",
      "region":"Trenèiansky",
      "latitude":48.848494,
      "longitude":18.2252
   },
   {
      "city":" Kšinná",
      "county":"Bánovce nad Bebravou",
      "region":"Trenèiansky",
      "latitude":48.808028,
      "longitude":18.351777
   },
   {
      "city":" Libichava",
      "county":"Bánovce nad Bebravou",
      "region":"Trenèiansky",
      "latitude":48.671026,
      "longitude":18.175274
   },
   {
      "city":" ¼utov",
      "county":"Bánovce nad Bebravou",
      "region":"Trenèiansky",
      "latitude":48.786782,
      "longitude":18.285958
   },
   {
      "city":" Malá Hradná",
      "county":"Bánovce nad Bebravou",
      "region":"Trenèiansky",
      "latitude":48.759001,
      "longitude":18.163626
   },
   {
      "city":" Malé Hoste",
      "county":"Bánovce nad Bebravou",
      "region":"Trenèiansky",
      "latitude":48.70287,
      "longitude":18.135135
   },
   {
      "city":" Miezgovce",
      "county":"Bánovce nad Bebravou",
      "region":"Trenèiansky",
      "latitude":48.720031,
      "longitude":18.311193
   },
   {
      "city":" Nedašovce",
      "county":"Bánovce nad Bebravou",
      "region":"Trenèiansky",
      "latitude":48.667925,
      "longitude":18.314974
   },
   {
      "city":" Omastiná",
      "county":"Bánovce nad Bebravou",
      "region":"Trenèiansky",
      "latitude":48.783333,
      "longitude":18.383333
   },
   {
      "city":" Otrhánky",
      "county":"Bánovce nad Bebravou",
      "region":"Trenèiansky",
      "latitude":48.693814,
      "longitude":18.206999
   },
   {
      "city":" Peèeòany",
      "county":"Bánovce nad Bebravou",
      "region":"Trenèiansky",
      "latitude":48.674828,
      "longitude":18.227577
   },
   {
      "city":" Podluany",
      "county":"Bánovce nad Bebravou",
      "region":"Trenèiansky",
      "latitude":48.770952,
      "longitude":18.238901
   },
   {
      "city":" Pochabany",
      "county":"Bánovce nad Bebravou",
      "region":"Trenèiansky",
      "latitude":48.69144,
      "longitude":18.145388
   },
   {
      "city":" Pravotice",
      "county":"Bánovce nad Bebravou",
      "region":"Trenèiansky",
      "latitude":48.682362,
      "longitude":18.29192
   },
   {
      "city":" Prusy",
      "county":"Bánovce nad Bebravou",
      "region":"Trenèiansky",
      "latitude":48.758756,
      "longitude":18.27036
   },
   {
      "city":" Ruskovce",
      "county":"Bánovce nad Bebravou",
      "region":"Trenèiansky",
      "latitude":48.743891,
      "longitude":18.190323
   },
   {
      "city":" Rybany",
      "county":"Bánovce nad Bebravou",
      "region":"Trenèiansky",
      "latitude":48.666713,
      "longitude":18.260228
   },
   {
      "city":" Slatina nad Bebravou",
      "county":"Bánovce nad Bebravou",
      "region":"Trenèiansky",
      "latitude":48.836858,
      "longitude":18.263817
   },
   {
      "city":" Slatinka nad Bebravou",
      "county":"Bánovce nad Bebravou",
      "region":"Trenèiansky",
      "latitude":48.844245,
      "longitude":18.241684
   },
   {
      "city":" Šípkov",
      "county":"Bánovce nad Bebravou",
      "region":"Trenèiansky",
      "latitude":48.851139,
      "longitude":18.293053
   },
   {
      "city":" Šišov",
      "county":"Bánovce nad Bebravou",
      "region":"Trenèiansky",
      "latitude":48.656974,
      "longitude":18.179533
   },
   {
      "city":" Timoradza",
      "county":"Bánovce nad Bebravou",
      "region":"Trenèiansky",
      "latitude":48.812812,
      "longitude":18.249843
   },
   {
      "city":" Trebichava",
      "county":"Bánovce nad Bebravou",
      "region":"Trenèiansky",
      "latitude":48.821936,
      "longitude":18.301306
   },
   {
      "city":" Uhrovec",
      "county":"Bánovce nad Bebravou",
      "region":"Trenèiansky",
      "latitude":48.743459,
      "longitude":18.337592
   },
   {
      "city":" Uhrovské Podhradie",
      "county":"Bánovce nad Bebravou",
      "region":"Trenèiansky",
      "latitude":48.766667,
      "longitude":18.383333
   },
   {
      "city":" Ve¾ké Drkovce",
      "county":"Bánovce nad Bebravou",
      "region":"Trenèiansky",
      "latitude":48.735051,
      "longitude":18.173823
   },
   {
      "city":" Ve¾ké Hoste",
      "county":"Bánovce nad Bebravou",
      "region":"Trenèiansky",
      "latitude":48.680042,
      "longitude":18.157377
   },
   {
      "city":" Ve¾ké Chlievany",
      "county":"Bánovce nad Bebravou",
      "region":"Trenèiansky",
      "latitude":48.703784,
      "longitude":18.224509
   },
   {
      "city":" Vysoèany",
      "county":"Bánovce nad Bebravou",
      "region":"Trenèiansky",
      "latitude":48.679561,
      "longitude":18.318783
   },
   {
      "city":" Zlatníky",
      "county":"Bánovce nad Bebravou",
      "region":"Trenèiansky",
      "latitude":48.711147,
      "longitude":18.122542
   },
   {
      "city":" itná - Radiša",
      "county":"Bánovce nad Bebravou",
      "region":"Trenèiansky",
      "latitude":48.766793,
      "longitude":18.346479
   },
   {
      "city":" Bohunice",
      "county":"Ilava",
      "region":"Trenèiansky",
      "latitude":49.026354,
      "longitude":18.187175
   },
   {
      "city":" Bolešov",
      "county":"Ilava",
      "region":"Trenèiansky",
      "latitude":49.006029,
      "longitude":18.134639
   },
   {
      "city":" Borèice",
      "county":"Ilava",
      "region":"Trenèiansky",
      "latitude":48.991363,
      "longitude":18.121878
   },
   {
      "city":" Èervenı Kameò",
      "county":"Ilava",
      "region":"Trenèiansky",
      "latitude":49.107062,
      "longitude":18.145897
   },
   {
      "city":" Dubnica nad Váhom",
      "county":"Ilava",
      "region":"Trenèiansky",
      "latitude":48.953355,
      "longitude":18.199015
   },
   {
      "city":" Dulov",
      "county":"Ilava",
      "region":"Trenèiansky",
      "latitude":49.037898,
      "longitude":18.253899
   },
   {
      "city":" Horná Poruba",
      "county":"Ilava",
      "region":"Trenèiansky",
      "latitude":48.949245,
      "longitude":18.300426
   },
   {
      "city":" Ilava",
      "county":"Ilava",
      "region":"Trenèiansky",
      "latitude":48.998567,
      "longitude":18.23076
   },
   {
      "city":" Kamenièany",
      "county":"Ilava",
      "region":"Trenèiansky",
      "latitude":48.991259,
      "longitude":18.170564
   },
   {
      "city":" Košeca",
      "county":"Ilava",
      "region":"Trenèiansky",
      "latitude":49.003915,
      "longitude":18.295097
   },
   {
      "city":" Košecké Podhradie",
      "county":"Ilava",
      "region":"Trenèiansky",
      "latitude":48.9662,
      "longitude":18.32411
   },
   {
      "city":" Krivoklát",
      "county":"Ilava",
      "region":"Trenèiansky",
      "latitude":49.050315,
      "longitude":18.141372
   },
   {
      "city":" Ladce",
      "county":"Ilava",
      "region":"Trenèiansky",
      "latitude":49.026727,
      "longitude":18.295993
   },
   {
      "city":" Mikušovce",
      "county":"Ilava",
      "region":"Trenèiansky",
      "latitude":49.071229,
      "longitude":18.196494
   },
   {
      "city":" Nová Dubnica",
      "county":"Ilava",
      "region":"Trenèiansky",
      "latitude":48.930136,
      "longitude":18.175839
   },
   {
      "city":" Pruské",
      "county":"Ilava",
      "region":"Trenèiansky",
      "latitude":49.030004,
      "longitude":18.211769
   },
   {
      "city":" Sedmerovec",
      "county":"Ilava",
      "region":"Trenèiansky",
      "latitude":49.017315,
      "longitude":18.177974
   },
   {
      "city":" Slavnica",
      "county":"Ilava",
      "region":"Trenèiansky",
      "latitude":48.998239,
      "longitude":18.181343
   },
   {
      "city":" Tuchyòa",
      "county":"Ilava",
      "region":"Trenèiansky",
      "latitude":49.043122,
      "longitude":18.219215
   },
   {
      "city":" Vršatské Podhradie",
      "county":"Ilava",
      "region":"Trenèiansky",
      "latitude":49.064491,
      "longitude":18.152066
   },
   {
      "city":" Zliechov",
      "county":"Ilava",
      "region":"Trenèiansky",
      "latitude":48.940168,
      "longitude":18.425732
   },
   {
      "city":" Brestovec",
      "county":"Myjava",
      "region":"Trenèiansky",
      "latitude":48.800879,
      "longitude":17.552825
   },
   {
      "city":" Brezová pod Bradlom",
      "county":"Myjava",
      "region":"Trenèiansky",
      "latitude":48.671968,
      "longitude":17.536862
   },
   {
      "city":" Bukovec",
      "county":"Myjava",
      "region":"Trenèiansky",
      "latitude":48.695429,
      "longitude":17.492496
   },
   {
      "city":" Hrašné",
      "county":"Myjava",
      "region":"Trenèiansky",
      "latitude":48.751596,
      "longitude":17.67258
   },
   {
      "city":" Chvojnica",
      "county":"Myjava",
      "region":"Trenèiansky",
      "latitude":48.800141,
      "longitude":17.406789
   },
   {
      "city":" Jablonka",
      "county":"Myjava",
      "region":"Trenèiansky",
      "latitude":48.725798,
      "longitude":17.616433
   },
   {
      "city":" Kostolné",
      "county":"Myjava",
      "region":"Trenèiansky",
      "latitude":48.736613,
      "longitude":17.707993
   },
   {
      "city":" Košariská",
      "county":"Myjava",
      "region":"Trenèiansky",
      "latitude":48.662581,
      "longitude":17.607019
   },
   {
      "city":" Krajné",
      "county":"Myjava",
      "region":"Trenèiansky",
      "latitude":48.700576,
      "longitude":17.68716
   },
   {
      "city":" Myjava",
      "county":"Myjava",
      "region":"Trenèiansky",
      "latitude":48.755409,
      "longitude":17.567531
   },
   {
      "city":" Podkylava",
      "county":"Myjava",
      "region":"Trenèiansky",
      "latitude":48.682457,
      "longitude":17.668883
   },
   {
      "city":" Polianka",
      "county":"Myjava",
      "region":"Trenèiansky",
      "latitude":48.72266,
      "longitude":17.578802
   },
   {
      "city":" Poriadie",
      "county":"Myjava",
      "region":"Trenèiansky",
      "latitude":48.774029,
      "longitude":17.599715
   },
   {
      "city":" Priepasné",
      "county":"Myjava",
      "region":"Trenèiansky",
      "latitude":48.697184,
      "longitude":17.585841
   },
   {
      "city":" Rudník",
      "county":"Myjava",
      "region":"Trenèiansky",
      "latitude":48.756525,
      "longitude":17.622211
   },
   {
      "city":" Stará Myjava",
      "county":"Myjava",
      "region":"Trenèiansky",
      "latitude":48.806887,
      "longitude":17.598865
   },
   {
      "city":" Vrbovce",
      "county":"Myjava",
      "region":"Trenèiansky",
      "latitude":48.799817,
      "longitude":17.468989
   },
   {
      "city":" Beckov",
      "county":"Nové Mesto n.Váhom",
      "region":"Trenèiansky",
      "latitude":48.789154,
      "longitude":17.895266
   },
   {
      "city":" Bošáca",
      "county":"Nové Mesto n.Váhom",
      "region":"Trenèiansky",
      "latitude":48.831802,
      "longitude":17.838778
   },
   {
      "city":" Brunovce",
      "county":"Nové Mesto n.Váhom",
      "region":"Trenèiansky",
      "latitude":48.672796,
      "longitude":17.853705
   },
   {
      "city":" Bzince pod Javorinou",
      "county":"Nové Mesto n.Váhom",
      "region":"Trenèiansky",
      "latitude":48.787315,
      "longitude":17.770566
   },
   {
      "city":" Èachtice",
      "county":"Nové Mesto n.Váhom",
      "region":"Trenèiansky",
      "latitude":48.712156,
      "longitude":17.787124
   },
   {
      "city":" Èastkovce",
      "county":"Nové Mesto n.Váhom",
      "region":"Trenèiansky",
      "latitude":48.689202,
      "longitude":17.78056
   },
   {
      "city":" Dolné Srnie",
      "county":"Nové Mesto n.Váhom",
      "region":"Trenèiansky",
      "latitude":48.798931,
      "longitude":17.821674
   },
   {
      "city":" Haluzice",
      "county":"Nové Mesto n.Váhom",
      "region":"Trenèiansky",
      "latitude":48.823029,
      "longitude":17.865706
   },
   {
      "city":" Horná Streda",
      "county":"Nové Mesto n.Váhom",
      "region":"Trenèiansky",
      "latitude":48.655934,
      "longitude":17.842676
   },
   {
      "city":" Hôrka nad Váhom",
      "county":"Nové Mesto n.Váhom",
      "region":"Trenèiansky",
      "latitude":48.721248,
      "longitude":17.892318
   },
   {
      "city":" Hrádok",
      "county":"Nové Mesto n.Váhom",
      "region":"Trenèiansky",
      "latitude":48.697813,
      "longitude":17.88724
   },
   {
      "city":" Hrachovište",
      "county":"Nové Mesto n.Váhom",
      "region":"Trenèiansky",
      "latitude":48.713924,
      "longitude":17.727807
   },
   {
      "city":" Kálnica",
      "county":"Nové Mesto n.Váhom",
      "region":"Trenèiansky",
      "latitude":48.764267,
      "longitude":17.919403
   },
   {
      "city":" Koèovce",
      "county":"Nové Mesto n.Váhom",
      "region":"Trenèiansky",
      "latitude":48.743835,
      "longitude":17.886943
   },
   {
      "city":" Lubina",
      "county":"Nové Mesto n.Váhom",
      "region":"Trenèiansky",
      "latitude":48.783957,
      "longitude":17.736806
   },
   {
      "city":" Lúka",
      "county":"Nové Mesto n.Váhom",
      "region":"Trenèiansky",
      "latitude":48.656985,
      "longitude":17.878504
   },
   {
      "city":" Modrová",
      "county":"Nové Mesto n.Váhom",
      "region":"Trenèiansky",
      "latitude":48.642106,
      "longitude":17.897734
   },
   {
      "city":" Modrovka",
      "county":"Nové Mesto n.Váhom",
      "region":"Trenèiansky",
      "latitude":48.642106,
      "longitude":17.897734
   },
   {
      "city":" Moravské Lieskové",
      "county":"Nové Mesto n.Váhom",
      "region":"Trenèiansky",
      "latitude":48.819832,
      "longitude":17.795145
   },
   {
      "city":" Nová Bošáca",
      "county":"Nové Mesto n.Váhom",
      "region":"Trenèiansky",
      "latitude":48.878578,
      "longitude":17.795702
   },
   {
      "city":" Nová Lehota",
      "county":"Nové Mesto n.Váhom",
      "region":"Trenèiansky",
      "latitude":48.657921,
      "longitude":17.982539
   },
   {
      "city":" Nová Ves nad Váhom",
      "county":"Nové Mesto n.Váhom",
      "region":"Trenèiansky",
      "latitude":48.732368,
      "longitude":17.888618
   },
   {
      "city":" Nové Mesto nad Váhom",
      "county":"Nové Mesto n.Váhom",
      "region":"Trenèiansky",
      "latitude":48.75638,
      "longitude":17.832697
   },
   {
      "city":" Oèkov",
      "county":"Nové Mesto n.Váhom",
      "region":"Trenèiansky",
      "latitude":48.653441,
      "longitude":17.764286
   },
   {
      "city":" Pobedim",
      "county":"Nové Mesto n.Váhom",
      "region":"Trenèiansky",
      "latitude":48.648987,
      "longitude":17.802747
   },
   {
      "city":" Podolie",
      "county":"Nové Mesto n.Váhom",
      "region":"Trenèiansky",
      "latitude":48.678029,
      "longitude":17.77552
   },
   {
      "city":" Potvorice",
      "county":"Nové Mesto n.Váhom",
      "region":"Trenèiansky",
      "latitude":48.688892,
      "longitude":17.847882
   },
   {
      "city":" Povaany",
      "county":"Nové Mesto n.Váhom",
      "region":"Trenèiansky",
      "latitude":48.713688,
      "longitude":17.842791
   },
   {
      "city":" Stará Lehota",
      "county":"Nové Mesto n.Váhom",
      "region":"Trenèiansky",
      "latitude":48.652761,
      "longitude":17.95023
   },
   {
      "city":" Stará Turá",
      "county":"Nové Mesto n.Váhom",
      "region":"Trenèiansky",
      "latitude":48.780891,
      "longitude":17.687374
   },
   {
      "city":" Trenèianske Bohuslavice",
      "county":"Nové Mesto n.Váhom",
      "region":"Trenèiansky",
      "latitude":48.8026,
      "longitude":17.85809
   },
   {
      "city":" Vaïovce",
      "county":"Nové Mesto n.Váhom",
      "region":"Trenèiansky",
      "latitude":48.737772,
      "longitude":17.72259
   },
   {
      "city":" Višòové",
      "county":"Nové Mesto n.Váhom",
      "region":"Trenèiansky",
      "latitude":48.725638,
      "longitude":17.750633
   },
   {
      "city":" Zemianske Podhradie",
      "county":"Nové Mesto n.Váhom",
      "region":"Trenèiansky",
      "latitude":48.842302,
      "longitude":17.833215
   },
   {
      "city":" Bošany",
      "county":"Partizánske",
      "region":"Trenèiansky",
      "latitude":48.574976,
      "longitude":18.244737
   },
   {
      "city":" Brodzany",
      "county":"Partizánske",
      "region":"Trenèiansky",
      "latitude":48.610506,
      "longitude":18.341165
   },
   {
      "city":" Hradište",
      "county":"Partizánske",
      "region":"Trenèiansky",
      "latitude":48.688357,
      "longitude":18.361738
   },
   {
      "city":" Chynorany",
      "county":"Partizánske",
      "region":"Trenèiansky",
      "latitude":48.609821,
      "longitude":18.27348
   },
   {
      "city":" Ješkova Ves",
      "county":"Partizánske",
      "region":"Trenèiansky",
      "latitude":48.531939,
      "longitude":18.350378
   },
   {
      "city":" Klátova Nová Ves",
      "county":"Partizánske",
      "region":"Trenèiansky",
      "latitude":48.533994,
      "longitude":18.313468
   },
   {
      "city":" Kolaèno",
      "county":"Partizánske",
      "region":"Trenèiansky",
      "latitude":48.593739,
      "longitude":18.425892
   },
   {
      "city":" Krásno",
      "county":"Partizánske",
      "region":"Trenèiansky",
      "latitude":48.597765,
      "longitude":18.315193
   },
   {
      "city":" Livina",
      "county":"Partizánske",
      "region":"Trenèiansky",
      "latitude":48.648159,
      "longitude":18.250911
   },
   {
      "city":" Livinské Opatovce",
      "county":"Partizánske",
      "region":"Trenèiansky",
      "latitude":48.642552,
      "longitude":18.226218
   },
   {
      "city":" Malé Kršteòany",
      "county":"Partizánske",
      "region":"Trenèiansky",
      "latitude":48.64536,
      "longitude":18.441713
   },
   {
      "city":" Malé Uherce",
      "county":"Partizánske",
      "region":"Trenèiansky",
      "latitude":48.615868,
      "longitude":18.408691
   },
   {
      "city":" Nadlice",
      "county":"Partizánske",
      "region":"Trenèiansky",
      "latitude":48.619246,
      "longitude":18.251209
   },
   {
      "city":" Nedanovce",
      "county":"Partizánske",
      "region":"Trenèiansky",
      "latitude":48.593367,
      "longitude":18.294424
   },
   {
      "city":" Ostratice",
      "county":"Partizánske",
      "region":"Trenèiansky",
      "latitude":48.647434,
      "longitude":18.291497
   },
   {
      "city":" Partizánske",
      "county":"Partizánske",
      "region":"Trenèiansky",
      "latitude":48.626409,
      "longitude":18.373007
   },
   {
      "city":" Pai",
      "county":"Partizánske",
      "region":"Trenèiansky",
      "latitude":48.632235,
      "longitude":18.434397
   },
   {
      "city":" Skaèany",
      "county":"Partizánske",
      "region":"Trenèiansky",
      "latitude":48.66098,
      "longitude":18.378698
   },
   {
      "city":" Turèianky",
      "county":"Partizánske",
      "region":"Trenèiansky",
      "latitude":48.581349,
      "longitude":18.320535
   },
   {
      "city":" Ve¾ké Kršteòany",
      "county":"Partizánske",
      "region":"Trenèiansky",
      "latitude":48.661131,
      "longitude":18.430685
   },
   {
      "city":" Ve¾ké Uherce",
      "county":"Partizánske",
      "region":"Trenèiansky",
      "latitude":48.591392,
      "longitude":18.45343
   },
   {
      "city":" Ve¾kı Klí",
      "county":"Partizánske",
      "region":"Trenèiansky",
      "latitude":48.533348,
      "longitude":18.40481
   },
   {
      "city":" abokreky nad Nitrou",
      "county":"Partizánske",
      "region":"Trenèiansky",
      "latitude":48.624836,
      "longitude":18.308591
   },
   {
      "city":" Bodiná",
      "county":"Povaská Bystrica",
      "region":"Trenèiansky",
      "latitude":49.109172,
      "longitude":18.561888
   },
   {
      "city":" Brvnište",
      "county":"Povaská Bystrica",
      "region":"Trenèiansky",
      "latitude":49.21538,
      "longitude":18.424225
   },
   {
      "city":" Èelkova Lehota",
      "county":"Povaská Bystrica",
      "region":"Trenèiansky",
      "latitude":49.016993,
      "longitude":18.527119
   },
   {
      "city":" Dolná Mariková",
      "county":"Povaská Bystrica",
      "region":"Trenèiansky",
      "latitude":49.205713,
      "longitude":18.357836
   },
   {
      "city":" Dolnı Lieskov",
      "county":"Povaská Bystrica",
      "region":"Trenèiansky",
      "latitude":49.054511,
      "longitude":18.416715
   },
   {
      "city":" Domania",
      "county":"Povaská Bystrica",
      "region":"Trenèiansky",
      "latitude":49.045015,
      "longitude":18.552308
   },
   {
      "city":" Ïurïové",
      "county":"Povaská Bystrica",
      "region":"Trenèiansky",
      "latitude":49.027308,
      "longitude":18.498821
   },
   {
      "city":" Hatné",
      "county":"Povaská Bystrica",
      "region":"Trenèiansky",
      "latitude":49.190315,
      "longitude":18.379365
   },
   {
      "city":" Horná Mariková",
      "county":"Povaská Bystrica",
      "region":"Trenèiansky",
      "latitude":49.246876,
      "longitude":18.308146
   },
   {
      "city":" Hornı Lieskov",
      "county":"Povaská Bystrica",
      "region":"Trenèiansky",
      "latitude":49.064908,
      "longitude":18.432201
   },
   {
      "city":" Jasenica",
      "county":"Povaská Bystrica",
      "region":"Trenèiansky",
      "latitude":49.180356,
      "longitude":18.451126
   },
   {
      "city":" Klieština",
      "county":"Povaská Bystrica",
      "region":"Trenèiansky",
      "latitude":49.182915,
      "longitude":18.356294
   },
   {
      "city":" Kostolec",
      "county":"Povaská Bystrica",
      "region":"Trenèiansky",
      "latitude":49.12635,
      "longitude":18.530503
   },
   {
      "city":" Malé Lednice",
      "county":"Povaská Bystrica",
      "region":"Trenèiansky",
      "latitude":49.069024,
      "longitude":18.572776
   },
   {
      "city":" Papradno",
      "county":"Povaská Bystrica",
      "region":"Trenèiansky",
      "latitude":49.230684,
      "longitude":18.410362
   },
   {
      "city":" Plevník - Drienové",
      "county":"Povaská Bystrica",
      "region":"Trenèiansky",
      "latitude":49.168156,
      "longitude":18.49711
   },
   {
      "city":" Poèarová",
      "county":"Povaská Bystrica",
      "region":"Trenèiansky",
      "latitude":49.06933,
      "longitude":18.513044
   },
   {
      "city":" Podskalie",
      "county":"Povaská Bystrica",
      "region":"Trenèiansky",
      "latitude":49.044376,
      "longitude":18.454763
   },
   {
      "city":" Povaská Bystrica",
      "county":"Povaská Bystrica",
      "region":"Trenèiansky",
      "latitude":49.115932,
      "longitude":18.446994
   },
   {
      "city":" Preèín",
      "county":"Povaská Bystrica",
      "region":"Trenèiansky",
      "latitude":49.084145,
      "longitude":18.519153
   },
   {
      "city":" Pruina",
      "county":"Povaská Bystrica",
      "region":"Trenèiansky",
      "latitude":49.016534,
      "longitude":18.476032
   },
   {
      "city":" Sádoèné",
      "county":"Povaská Bystrica",
      "region":"Trenèiansky",
      "latitude":49.019091,
      "longitude":18.545448
   },
   {
      "city":" Slopná",
      "county":"Povaská Bystrica",
      "region":"Trenèiansky",
      "latitude":49.050888,
      "longitude":18.408107
   },
   {
      "city":" Stupné",
      "county":"Povaská Bystrica",
      "region":"Trenèiansky",
      "latitude":49.1944,
      "longitude":18.439929
   },
   {
      "city":" Sverepec",
      "county":"Povaská Bystrica",
      "region":"Trenèiansky",
      "latitude":49.082879,
      "longitude":18.406933
   },
   {
      "city":" Udièa",
      "county":"Povaská Bystrica",
      "region":"Trenèiansky",
      "latitude":49.167548,
      "longitude":18.401136
   },
   {
      "city":" Vrchteplá",
      "county":"Povaská Bystrica",
      "region":"Trenèiansky",
      "latitude":49.130434,
      "longitude":18.562711
   },
   {
      "city":" Záskalie",
      "county":"Povaská Bystrica",
      "region":"Trenèiansky",
      "latitude":49.13671,
      "longitude":18.517798
   },
   {
      "city":" Bojnice",
      "county":"Prievidza",
      "region":"Trenèiansky",
      "latitude":48.792059,
      "longitude":18.584628
   },
   {
      "city":" Bystrièany",
      "county":"Prievidza",
      "region":"Trenèiansky",
      "latitude":48.658944,
      "longitude":18.517726
   },
   {
      "city":" Cige¾",
      "county":"Prievidza",
      "region":"Trenèiansky",
      "latitude":48.706027,
      "longitude":18.671333
   },
   {
      "city":" Èavoj",
      "county":"Prievidza",
      "region":"Trenèiansky",
      "latitude":48.883333,
      "longitude":18.483333
   },
   {
      "city":" Èereòany",
      "county":"Prievidza",
      "region":"Trenèiansky",
      "latitude":48.626198,
      "longitude":18.526097
   },
   {
      "city":" Diviacka Nová Ves",
      "county":"Prievidza",
      "region":"Trenèiansky",
      "latitude":48.748557,
      "longitude":18.499411
   },
   {
      "city":" Diviaky nad Nitricou",
      "county":"Prievidza",
      "region":"Trenèiansky",
      "latitude":48.774236,
      "longitude":18.492424
   },
   {
      "city":" Dlín",
      "county":"Prievidza",
      "region":"Trenèiansky",
      "latitude":48.81014,
      "longitude":18.512593
   },
   {
      "city":" Dolné Vestenice",
      "county":"Prievidza",
      "region":"Trenèiansky",
      "latitude":48.716754,
      "longitude":18.386389
   },
   {
      "city":" Handlová",
      "county":"Prievidza",
      "region":"Trenèiansky",
      "latitude":48.695191,
      "longitude":18.725694
   },
   {
      "city":" Horná Ves",
      "county":"Prievidza",
      "region":"Trenèiansky",
      "latitude":48.593566,
      "longitude":18.526725
   },
   {
      "city":" Horné Vestenice",
      "county":"Prievidza",
      "region":"Trenèiansky",
      "latitude":48.723799,
      "longitude":18.41952
   },
   {
      "city":" Chrenovec - Brusno",
      "county":"Prievidza",
      "region":"Trenèiansky",
      "latitude":48.774546,
      "longitude":18.725068
   },
   {
      "city":" Chvojnica",
      "county":"Prievidza",
      "region":"Trenèiansky",
      "latitude":48.895352,
      "longitude":18.530831
   },
   {
      "city":" Jalovec",
      "county":"Prievidza",
      "region":"Trenèiansky",
      "latitude":48.780485,
      "longitude":18.746613
   },
   {
      "city":" Kamenec pod Vtáènikom",
      "county":"Prievidza",
      "region":"Trenèiansky",
      "latitude":48.657679,
      "longitude":18.585072
   },
   {
      "city":" Kanianka",
      "county":"Prievidza",
      "region":"Trenèiansky",
      "latitude":48.816667,
      "longitude":18.583333
   },
   {
      "city":" K¾aèno",
      "county":"Prievidza",
      "region":"Trenèiansky",
      "latitude":48.910261,
      "longitude":18.656659
   },
   {
      "city":" Kocurany",
      "county":"Prievidza",
      "region":"Trenèiansky",
      "latitude":48.770421,
      "longitude":18.54317
   },
   {
      "city":" Kostolná Ves",
      "county":"Prievidza",
      "region":"Trenèiansky",
      "latitude":48.805938,
      "longitude":18.493162
   },
   {
      "city":" Koš",
      "county":"Prievidza",
      "region":"Trenèiansky",
      "latitude":48.736264,
      "longitude":18.584525
   },
   {
      "city":" Lazany",
      "county":"Prievidza",
      "region":"Trenèiansky",
      "latitude":48.81693,
      "longitude":18.619883
   },
   {
      "city":" Lehota pod Vtáènikom",
      "county":"Prievidza",
      "region":"Trenèiansky",
      "latitude":48.677164,
      "longitude":18.608893
   },
   {
      "city":" Liešany",
      "county":"Prievidza",
      "region":"Trenèiansky",
      "latitude":48.824841,
      "longitude":18.478571
   },
   {
      "city":" Lipník",
      "county":"Prievidza",
      "region":"Trenèiansky",
      "latitude":48.796934,
      "longitude":18.725222
   },
   {
      "city":" Malá Èausa",
      "county":"Prievidza",
      "region":"Trenèiansky",
      "latitude":48.807651,
      "longitude":18.69825
   },
   {
      "city":" Malinová",
      "county":"Prievidza",
      "region":"Trenèiansky",
      "latitude":48.856975,
      "longitude":18.592501
   },
   {
      "city":" Nedoery - Brezany",
      "county":"Prievidza",
      "region":"Trenèiansky",
      "latitude":48.817609,
      "longitude":18.644625
   },
   {
      "city":" Nevidzany",
      "county":"Prievidza",
      "region":"Trenèiansky",
      "latitude":48.857049,
      "longitude":18.502643
   },
   {
      "city":" Nitrianske Pravno",
      "county":"Prievidza",
      "region":"Trenèiansky",
      "latitude":48.885746,
      "longitude":18.66609
   },
   {
      "city":" Nitrianske Rudno",
      "county":"Prievidza",
      "region":"Trenèiansky",
      "latitude":48.793145,
      "longitude":18.456662
   },
   {
      "city":" Nitrianske Suèany",
      "county":"Prievidza",
      "region":"Trenèiansky",
      "latitude":48.733763,
      "longitude":18.47197
   },
   {
      "city":" Nitrica",
      "county":"Prievidza",
      "region":"Trenèiansky",
      "latitude":48.704923,
      "longitude":18.448045
   },
   {
      "city":" Nováky",
      "county":"Prievidza",
      "region":"Trenèiansky",
      "latitude":48.713763,
      "longitude":18.538109
   },
   {
      "city":" Opatovce nad Nitrou",
      "county":"Prievidza",
      "region":"Trenèiansky",
      "latitude":48.758524,
      "longitude":18.566113
   },
   {
      "city":" Oslany",
      "county":"Prievidza",
      "region":"Trenèiansky",
      "latitude":48.61599,
      "longitude":18.515694
   },
   {
      "city":" Podhradie",
      "county":"Prievidza",
      "region":"Trenèiansky",
      "latitude":48.663736,
      "longitude":18.649939
   },
   {
      "city":" Poluvsie",
      "county":"Prievidza",
      "region":"Trenèiansky",
      "latitude":48.844423,
      "longitude":18.638495
   },
   {
      "city":" Poruba",
      "county":"Prievidza",
      "region":"Trenèiansky",
      "latitude":48.843507,
      "longitude":18.569379
   },
   {
      "city":" Pravenec",
      "county":"Prievidza",
      "region":"Trenèiansky",
      "latitude":48.850283,
      "longitude":18.671083
   },
   {
      "city":" Prievidza",
      "county":"Prievidza",
      "region":"Trenèiansky",
      "latitude":48.771041,
      "longitude":18.623306
   },
   {
      "city":" Radobica",
      "county":"Prievidza",
      "region":"Trenèiansky",
      "latitude":48.585459,
      "longitude":18.500451
   },
   {
      "city":" Ráztoèno",
      "county":"Prievidza",
      "region":"Trenèiansky",
      "latitude":48.76779,
      "longitude":18.762534
   },
   {
      "city":" Rudnianska Lehota",
      "county":"Prievidza",
      "region":"Trenèiansky",
      "latitude":48.820937,
      "longitude":18.431143
   },
   {
      "city":" Sebedraie",
      "county":"Prievidza",
      "region":"Trenèiansky",
      "latitude":48.728671,
      "longitude":18.632914
   },
   {
      "city":" Seè",
      "county":"Prievidza",
      "region":"Trenèiansky",
      "latitude":48.832781,
      "longitude":18.509217
   },
   {
      "city":" Šútovce",
      "county":"Prievidza",
      "region":"Trenèiansky",
      "latitude":48.800861,
      "longitude":18.53702
   },
   {
      "city":" Temeš",
      "county":"Prievidza",
      "region":"Trenèiansky",
      "latitude":48.868394,
      "longitude":18.477305
   },
   {
      "city":" Tuina",
      "county":"Prievidza",
      "region":"Trenèiansky",
      "latitude":48.879425,
      "longitude":18.628957
   },
   {
      "city":" Valaská Belá",
      "county":"Prievidza",
      "region":"Trenèiansky",
      "latitude":48.894379,
      "longitude":18.3941
   },
   {
      "city":" Ve¾ká Èausa",
      "county":"Prievidza",
      "region":"Trenèiansky",
      "latitude":48.774562,
      "longitude":18.692626
   },
   {
      "city":" Zemianske Kosto¾any",
      "county":"Prievidza",
      "region":"Trenèiansky",
      "latitude":48.690535,
      "longitude":18.526657
   },
   {
      "city":" Beluša",
      "county":"Púchov",
      "region":"Trenèiansky",
      "latitude":49.066178,
      "longitude":18.330081
   },
   {
      "city":" Dohòany",
      "county":"Púchov",
      "region":"Trenèiansky",
      "latitude":49.145083,
      "longitude":18.27506
   },
   {
      "city":" Dolná Breznica",
      "county":"Púchov",
      "region":"Trenèiansky",
      "latitude":49.08241,
      "longitude":18.25876
   },
   {
      "city":" Dolné Koèkovce",
      "county":"Púchov",
      "region":"Trenèiansky",
      "latitude":49.097497,
      "longitude":18.338995
   },
   {
      "city":" Horná Breznica",
      "county":"Púchov",
      "region":"Trenèiansky",
      "latitude":49.123255,
      "longitude":18.244213
   },
   {
      "city":" Horovce",
      "county":"Púchov",
      "region":"Trenèiansky",
      "latitude":49.049377,
      "longitude":18.25975
   },
   {
      "city":" Kvašov",
      "county":"Púchov",
      "region":"Trenèiansky",
      "latitude":49.074797,
      "longitude":18.230038
   },
   {
      "city":" Lazy pod Makytou",
      "county":"Púchov",
      "region":"Trenèiansky",
      "latitude":49.247136,
      "longitude":18.222713
   },
   {
      "city":" Lednica",
      "county":"Púchov",
      "region":"Trenèiansky",
      "latitude":49.110865,
      "longitude":18.213433
   },
   {
      "city":" Lednické Rovne",
      "county":"Púchov",
      "region":"Trenèiansky",
      "latitude":49.077825,
      "longitude":18.294366
   },
   {
      "city":" Lúky",
      "county":"Púchov",
      "region":"Trenèiansky",
      "latitude":49.190671,
      "longitude":18.220668
   },
   {
      "city":" Lysá pod Makytou",
      "county":"Púchov",
      "region":"Trenèiansky",
      "latitude":49.209549,
      "longitude":18.17366
   },
   {
      "city":" Mesteèko",
      "county":"Púchov",
      "region":"Trenèiansky",
      "latitude":49.174222,
      "longitude":18.259004
   },
   {
      "city":" Mojtín",
      "county":"Púchov",
      "region":"Trenèiansky",
      "latitude":48.989857,
      "longitude":18.402683
   },
   {
      "city":" Nimnica",
      "county":"Púchov",
      "region":"Trenèiansky",
      "latitude":49.145601,
      "longitude":18.355426
   },
   {
      "city":" Púchov",
      "county":"Púchov",
      "region":"Trenèiansky",
      "latitude":49.123928,
      "longitude":18.323956
   },
   {
      "city":" Streenice",
      "county":"Púchov",
      "region":"Trenèiansky",
      "latitude":49.106687,
      "longitude":18.292293
   },
   {
      "city":" Visolaje",
      "county":"Púchov",
      "region":"Trenèiansky",
      "latitude":49.071447,
      "longitude":18.372938
   },
   {
      "city":" Vydrná",
      "county":"Púchov",
      "region":"Trenèiansky",
      "latitude":49.213624,
      "longitude":18.261594
   },
   {
      "city":" Zárieèie",
      "county":"Púchov",
      "region":"Trenèiansky",
      "latitude":49.175852,
      "longitude":18.233662
   },
   {
      "city":" Zubák",
      "county":"Púchov",
      "region":"Trenèiansky",
      "latitude":49.143259,
      "longitude":18.235341
   },
   {
      "city":" Adamovské Kochanovce",
      "county":"Trenèín",
      "region":"Trenèiansky",
      "latitude":48.863672,
      "longitude":17.917096
   },
   {
      "city":" Bobot",
      "county":"Trenèín",
      "region":"Trenèiansky",
      "latitude":48.832396,
      "longitude":18.20594
   },
   {
      "city":" Dolná Poruba",
      "county":"Trenèín",
      "region":"Trenèiansky",
      "latitude":48.901748,
      "longitude":18.290941
   },
   {
      "city":" Dolná Súèa",
      "county":"Trenèín",
      "region":"Trenèiansky",
      "latitude":48.971056,
      "longitude":18.027883
   },
   {
      "city":" Drietoma",
      "county":"Trenèín",
      "region":"Trenèiansky",
      "latitude":48.92777,
      "longitude":17.918987
   },
   {
      "city":" Dubodiel",
      "county":"Trenèín",
      "region":"Trenèiansky",
      "latitude":48.764538,
      "longitude":18.101032
   },
   {
      "city":" Horná Súèa",
      "county":"Trenèín",
      "region":"Trenèiansky",
      "latitude":48.982833,
      "longitude":17.952313
   },
   {
      "city":" Horòany",
      "county":"Trenèín",
      "region":"Trenèiansky",
      "latitude":48.783,
      "longitude":18.202695
   },
   {
      "city":" Horné Srnie",
      "county":"Trenèín",
      "region":"Trenèiansky",
      "latitude":49.024509,
      "longitude":18.060864
   },
   {
      "city":" Hrabovka",
      "county":"Trenèín",
      "region":"Trenèiansky",
      "latitude":48.933642,
      "longitude":18.038465
   },
   {
      "city":" Chocholná - Velèice",
      "county":"Trenèín",
      "region":"Trenèiansky",
      "latitude":48.867536,
      "longitude":17.945172
   },
   {
      "city":" Ivanovce",
      "county":"Trenèín",
      "region":"Trenèiansky",
      "latitude":48.83073,
      "longitude":17.904115
   },
   {
      "city":" Kostolná - Zárieèie",
      "county":"Trenèín",
      "region":"Trenèiansky",
      "latitude":48.879038,
      "longitude":17.968156
   },
   {
      "city":" Krivosúd - Bodovka",
      "county":"Trenèín",
      "region":"Trenèiansky",
      "latitude":48.819856,
      "longitude":17.944931
   },
   {
      "city":" Melèice - Lieskové",
      "county":"Trenèín",
      "region":"Trenèiansky",
      "latitude":48.862414,
      "longitude":17.880429
   },
   {
      "city":" Mníchova Lehota",
      "county":"Trenèín",
      "region":"Trenèiansky",
      "latitude":48.821632,
      "longitude":18.07085
   },
   {
      "city":" Motešice",
      "county":"Trenèín",
      "region":"Trenèiansky",
      "latitude":48.831621,
      "longitude":18.186767
   },
   {
      "city":" Nemšová",
      "county":"Trenèín",
      "region":"Trenèiansky",
      "latitude":48.981312,
      "longitude":18.06887
   },
   {
      "city":" Neporadza",
      "county":"Trenèín",
      "region":"Trenèiansky",
      "latitude":48.832359,
      "longitude":18.145866
   },
   {
      "city":" Omšenie",
      "county":"Trenèín",
      "region":"Trenèiansky",
      "latitude":48.901565,
      "longitude":18.227821
   },
   {
      "city":" Opatovce",
      "county":"Trenèín",
      "region":"Trenèiansky",
      "latitude":48.858861,
      "longitude":17.977853
   },
   {
      "city":" Petrova Lehota",
      "county":"Trenèín",
      "region":"Trenèiansky",
      "latitude":48.873718,
      "longitude":18.170256
   },
   {
      "city":" Selec",
      "county":"Trenèín",
      "region":"Trenèiansky",
      "latitude":48.778067,
      "longitude":18.000445
   },
   {
      "city":" Skalka nad Váhom",
      "county":"Trenèín",
      "region":"Trenèiansky",
      "latitude":48.936024,
      "longitude":18.072848
   },
   {
      "city":" Soblahov",
      "county":"Trenèín",
      "region":"Trenèiansky",
      "latitude":48.860455,
      "longitude":18.098404
   },
   {
      "city":" Svinná",
      "county":"Trenèín",
      "region":"Trenèiansky",
      "latitude":48.78759,
      "longitude":18.160167
   },
   {
      "city":" Štvrtok",
      "county":"Trenèín",
      "region":"Trenèiansky",
      "latitude":48.816633,
      "longitude":17.883306
   },
   {
      "city":" Trenèianska Teplá",
      "county":"Trenèín",
      "region":"Trenèiansky",
      "latitude":48.929006,
      "longitude":18.113384
   },
   {
      "city":" Trenèianska Turná",
      "county":"Trenèín",
      "region":"Trenèiansky",
      "latitude":48.822869,
      "longitude":18.03418
   },
   {
      "city":" Trenèianske Jastrabie",
      "county":"Trenèín",
      "region":"Trenèiansky",
      "latitude":48.79239,
      "longitude":18.094863
   },
   {
      "city":" Trenèianske Mitice",
      "county":"Trenèín",
      "region":"Trenèiansky",
      "latitude":48.819665,
      "longitude":18.114478
   },
   {
      "city":" Trenèianske Stankovce",
      "county":"Trenèín",
      "region":"Trenèiansky",
      "latitude":48.813976,
      "longitude":17.987591
   },
   {
      "city":" Trenèianske Teplice",
      "county":"Trenèín",
      "region":"Trenèiansky",
      "latitude":48.907605,
      "longitude":18.159912
   },
   {
      "city":" Trenèín",
      "county":"Trenèín",
      "region":"Trenèiansky",
      "latitude":48.892358,
      "longitude":18.039372
   },
   {
      "city":" Ve¾ká Hradná",
      "county":"Trenèín",
      "region":"Trenèiansky",
      "latitude":48.774523,
      "longitude":18.127137
   },
   {
      "city":" Ve¾ké Bierovce",
      "county":"Trenèín",
      "region":"Trenèiansky",
      "latitude":48.853176,
      "longitude":17.977312
   },
   {
      "city":" Zamarovce",
      "county":"Trenèín",
      "region":"Trenèiansky",
      "latitude":48.91373,
      "longitude":18.053015
   },
   {
      "city":" Bajè",
      "county":"Komárno",
      "region":"Nitriansky",
      "latitude":47.925965,
      "longitude":18.223409
   },
   {
      "city":" Bátorove Kosihy",
      "county":"Komárno",
      "region":"Nitriansky",
      "latitude":47.837068,
      "longitude":18.420387
   },
   {
      "city":" Bodza",
      "county":"Komárno",
      "region":"Nitriansky",
      "latitude":47.851509,
      "longitude":17.857151
   },
   {
      "city":" Bodzianske Lúky",
      "county":"Komárno",
      "region":"Nitriansky",
      "latitude":47.888958,
      "longitude":17.904569
   },
   {
      "city":" Brestovec",
      "county":"Komárno",
      "region":"Nitriansky",
      "latitude":47.879062,
      "longitude":17.843099
   },
   {
      "city":" Búè",
      "county":"Komárno",
      "region":"Nitriansky",
      "latitude":47.807725,
      "longitude":18.44219
   },
   {
      "city":" Èalovec",
      "county":"Komárno",
      "region":"Nitriansky",
      "latitude":47.845523,
      "longitude":17.961931
   },
   {
      "city":" Èíèov",
      "county":"Komárno",
      "region":"Nitriansky",
      "latitude":47.785643,
      "longitude":17.756443
   },
   {
      "city":" Dedina Mládee",
      "county":"Komárno",
      "region":"Nitriansky",
      "latitude":47.951519,
      "longitude":17.988817
   },
   {
      "city":" Dulovce",
      "county":"Komárno",
      "region":"Nitriansky",
      "latitude":47.877251,
      "longitude":18.266833
   },
   {
      "city":" Holiare",
      "county":"Komárno",
      "region":"Nitriansky",
      "latitude":47.831784,
      "longitude":17.810525
   },
   {
      "city":" Hurbanovo",
      "county":"Komárno",
      "region":"Nitriansky",
      "latitude":47.869726,
      "longitude":18.189124
   },
   {
      "city":" Chotín",
      "county":"Komárno",
      "region":"Nitriansky",
      "latitude":47.80975,
      "longitude":18.222326
   },
   {
      "city":" Ime¾",
      "county":"Komárno",
      "region":"Nitriansky",
      "latitude":47.899144,
      "longitude":18.142104
   },
   {
      "city":" Ia",
      "county":"Komárno",
      "region":"Nitriansky",
      "latitude":47.785724,
      "longitude":18.23316
   },
   {
      "city":" Kamenièná",
      "county":"Komárno",
      "region":"Nitriansky",
      "latitude":47.848296,
      "longitude":18.006716
   },
   {
      "city":" Klíska Nemá",
      "county":"Komárno",
      "region":"Nitriansky",
      "latitude":47.759344,
      "longitude":17.832026
   },
   {
      "city":" Kolárovo",
      "county":"Komárno",
      "region":"Nitriansky",
      "latitude":47.921645,
      "longitude":17.967715
   },
   {
      "city":" Komárno",
      "county":"Komárno",
      "region":"Nitriansky",
      "latitude":47.757408,
      "longitude":18.129825
   },
   {
      "city":" Kravany nad Dunajom",
      "county":"Komárno",
      "region":"Nitriansky",
      "latitude":47.774205,
      "longitude":18.475975
   },
   {
      "city":" Lipové",
      "county":"Komárno",
      "region":"Nitriansky",
      "latitude":47.840841,
      "longitude":17.862251
   },
   {
      "city":" Marcelová",
      "county":"Komárno",
      "region":"Nitriansky",
      "latitude":47.792073,
      "longitude":18.277071
   },
   {
      "city":" Martovce",
      "county":"Komárno",
      "region":"Nitriansky",
      "latitude":47.862697,
      "longitude":18.105217
   },
   {
      "city":" Moèa",
      "county":"Komárno",
      "region":"Nitriansky",
      "latitude":47.77687,
      "longitude":18.405962
   },
   {
      "city":" Modrany",
      "county":"Komárno",
      "region":"Nitriansky",
      "latitude":47.816365,
      "longitude":18.362775
   },
   {
      "city":" Mudroòovo",
      "county":"Komárno",
      "region":"Nitriansky",
      "latitude":47.830613,
      "longitude":18.318036
   },
   {
      "city":" Nesvady",
      "county":"Komárno",
      "region":"Nitriansky",
      "latitude":47.926671,
      "longitude":18.117576
   },
   {
      "city":" Okolièná na Ostrove",
      "county":"Komárno",
      "region":"Nitriansky",
      "latitude":47.819429,
      "longitude":17.925533
   },
   {
      "city":" Patince",
      "county":"Komárno",
      "region":"Nitriansky",
      "latitude":47.739814,
      "longitude":18.292099
   },
   {
      "city":" Pribeta",
      "county":"Komárno",
      "region":"Nitriansky",
      "latitude":47.90511,
      "longitude":18.309498
   },
   {
      "city":" Radvaò nad Dunajom",
      "county":"Komárno",
      "region":"Nitriansky",
      "latitude":47.761913,
      "longitude":18.358793
   },
   {
      "city":" Sokolce",
      "county":"Komárno",
      "region":"Nitriansky",
      "latitude":47.880672,
      "longitude":17.867808
   },
   {
      "city":" Svätı Peter",
      "county":"Komárno",
      "region":"Nitriansky",
      "latitude":47.831078,
      "longitude":18.21311
   },
   {
      "city":" Šrobárová",
      "county":"Komárno",
      "region":"Nitriansky",
      "latitude":47.804523,
      "longitude":18.3265
   },
   {
      "city":" Tôò",
      "county":"Komárno",
      "region":"Nitriansky",
      "latitude":47.801716,
      "longitude":17.822457
   },
   {
      "city":" Trávnik",
      "county":"Komárno",
      "region":"Nitriansky",
      "latitude":47.767474,
      "longitude":17.804545
   },
   {
      "city":" Ve¾ké Kosihy",
      "county":"Komárno",
      "region":"Nitriansky",
      "latitude":47.766892,
      "longitude":17.891202
   },
   {
      "city":" Virt",
      "county":"Komárno",
      "region":"Nitriansky",
      "latitude":47.753718,
      "longitude":18.321583
   },
   {
      "city":" Vrbová nad Váhom",
      "county":"Komárno",
      "region":"Nitriansky",
      "latitude":47.859505,
      "longitude":18.05211
   },
   {
      "city":" Zemianska Olèa",
      "county":"Komárno",
      "region":"Nitriansky",
      "latitude":47.838884,
      "longitude":17.891807
   },